$GPRMC,120816.00,A,5026.76,N,31-28.84,E,,,160114,,,A
$PGRMZ,239,m,3
$GPRMC,120817.00,A,5026.75,N,31-28.84,E,,,160114,,,A
$PGRMZ,218,m,3
$GPRMC,120818.00,A,5026.74,N,31-28.84,E,,,160114,,,A
$PGRMZ,201,m,3
$GPRMC,120819.00,A,5026.73,N,31-28.85,E,,,160114,,,A
$PGRMZ,187,m,3
$GPRMC,120820.00,A,5026.72,N,31-28.85,E,,,160114,,,A
$PGRMZ,175,m,3
$GPRMC,120821.00,A,5026.72,N,31-28.86,E,,,160114,,,A
$PGRMZ,173,m,3
$GPRMC,120822.00,A,5026.72,N,31-28.86,E,,,160114,,,A
$PGRMZ,171,m,3
$GPRMC,120823.00,A,5026.72,N,31-28.86,E,,,160114,,,A
$PGRMZ,168,m,3
$GPRMC,120824.00,A,5026.72,N,31-28.85,E,,,160114,,,A
$PGRMZ,167,m,3
$GPRMC,120825.00,A,5026.72,N,31-28.85,E,,,160114,,,A
$PGRMZ,166,m,3
$GPRMC,120826.00,A,5026.72,N,31-28.85,E,,,160114,,,A
$PGRMZ,166,m,3
$GPRMC,120827.00,A,5026.72,N,31-28.85,E,,,160114,,,A
$PGRMZ,166,m,3
$GPRMC,120828.00,A,5026.72,N,31-28.85,E,,,160114,,,A
$PGRMZ,167,m,3
$GPRMC,120829.00,A,5026.7,N,31-28.85,E,,,160114,,,A
$PGRMZ,142,m,3
$GPRMC,120831.00,A,5026.7,N,31-28.85,E,,,160114,,,A
$PGRMZ,140,m,3
$GPRMC,120832.00,A,5026.7,N,31-28.85,E,,,160114,,,A
$PGRMZ,138,m,3
$GPRMC,120834.00,A,5026.7,N,31-28.85,E,,,160114,,,A
$PGRMZ,140,m,3
$GPRMC,120835.00,A,5026.7,N,31-28.85,E,,,160114,,,A
$PGRMZ,140,m,3
$GPRMC,120836.00,A,5026.7,N,31-28.85,E,,,160114,,,A
$PGRMZ,140,m,3
$GPRMC,120837.00,A,5026.7,N,31-28.85,E,,,160114,,,A
$PGRMZ,140,m,3
$GPRMC,120838.00,A,5026.7,N,31-28.85,E,,,160114,,,A
$PGRMZ,140,m,3
$GPRMC,120839.00,A,5026.7,N,31-28.85,E,,,160114,,,A
$PGRMZ,140,m,3
$GPRMC,120840.00,A,5026.7,N,31-28.85,E,,,160114,,,A
$PGRMZ,139,m,3
$GPRMC,120841.00,A,5026.7,N,31-28.85,E,,,160114,,,A
$PGRMZ,138,m,3
$GPRMC,120844.00,A,5026.7,N,31-28.84,E,,,160114,,,A
$PGRMZ,137,m,3
$GPRMC,120845.00,A,5026.7,N,31-28.84,E,,,160114,,,A
$PGRMZ,138,m,3
$GPRMC,120852.00,A,5026.7,N,31-28.84,E,,,160114,,,A
$PGRMZ,137,m,3
$GPRMC,120856.00,A,5026.7,N,31-28.84,E,,,160114,,,A
$PGRMZ,138,m,3
$GPRMC,120858.00,A,5026.7,N,31-28.83,E,,,160114,,,A
$PGRMZ,137,m,3
$GPRMC,120900.00,A,5026.7,N,31-28.83,E,,,160114,,,A
$PGRMZ,136,m,3
$GPRMC,120901.00,A,5026.7,N,31-28.83,E,,,160114,,,A
$PGRMZ,136,m,3
$GPRMC,120902.00,A,5026.7,N,31-28.83,E,,,160114,,,A
$PGRMZ,136,m,3
$GPRMC,120903.00,A,5026.7,N,31-28.83,E,,,160114,,,A
$PGRMZ,136,m,3
$GPRMC,120904.00,A,5026.7,N,31-28.83,E,,,160114,,,A
$PGRMZ,135,m,3
$GPRMC,120905.00,A,5026.7,N,31-28.82,E,,,160114,,,A
$PGRMZ,135,m,3
$GPRMC,120906.00,A,5026.7,N,31-28.82,E,,,160114,,,A
$PGRMZ,134,m,3
$GPRMC,120907.00,A,5026.7,N,31-28.82,E,,,160114,,,A
$PGRMZ,134,m,3
$GPRMC,120908.00,A,5026.7,N,31-28.82,E,,,160114,,,A
$PGRMZ,134,m,3
$GPRMC,120909.00,A,5026.7,N,31-28.82,E,,,160114,,,A
$PGRMZ,134,m,3
$GPRMC,120910.00,A,5026.7,N,31-28.82,E,,,160114,,,A
$PGRMZ,133,m,3
$GPRMC,120911.00,A,5026.7,N,31-28.82,E,,,160114,,,A
$PGRMZ,133,m,3
$GPRMC,120912.00,A,5026.7,N,31-28.81,E,,,160114,,,A
$PGRMZ,133,m,3
$GPRMC,120913.00,A,5026.7,N,31-28.81,E,,,160114,,,A
$PGRMZ,132,m,3
$GPRMC,120914.00,A,5026.7,N,31-28.81,E,,,160114,,,A
$PGRMZ,132,m,3
$GPRMC,120915.00,A,5026.7,N,31-28.81,E,,,160114,,,A
$PGRMZ,132,m,3
$GPRMC,120916.00,A,5026.7,N,31-28.81,E,,,160114,,,A
$PGRMZ,131,m,3
$GPRMC,120917.00,A,5026.69,N,31-28.81,E,,,160114,,,A
$PGRMZ,131,m,3
$GPRMC,120918.00,A,5026.69,N,31-28.8,E,,,160114,,,A
$PGRMZ,131,m,3
$GPRMC,120919.00,A,5026.69,N,31-28.8,E,,,160114,,,A
$PGRMZ,131,m,3
$GPRMC,120920.00,A,5026.69,N,31-28.8,E,,,160114,,,A
$PGRMZ,131,m,3
$GPRMC,120921.00,A,5026.69,N,31-28.8,E,,,160114,,,A
$PGRMZ,131,m,3
$GPRMC,120924.00,A,5026.69,N,31-28.8,E,,,160114,,,A
$PGRMZ,131,m,3
$GPRMC,120925.00,A,5026.69,N,31-28.8,E,,,160114,,,A
$PGRMZ,131,m,3
$GPRMC,120926.00,A,5026.69,N,31-28.8,E,,,160114,,,A
$PGRMZ,130,m,3
$GPRMC,120927.00,A,5026.69,N,31-28.79,E,,,160114,,,A
$PGRMZ,130,m,3
$GPRMC,120928.00,A,5026.69,N,31-28.79,E,,,160114,,,A
$PGRMZ,130,m,3
$GPRMC,120929.00,A,5026.69,N,31-28.79,E,,,160114,,,A
$PGRMZ,130,m,3
$GPRMC,120930.00,A,5026.69,N,31-28.79,E,,,160114,,,A
$PGRMZ,130,m,3
$GPRMC,120931.00,A,5026.69,N,31-28.79,E,,,160114,,,A
$PGRMZ,129,m,3
$GPRMC,120932.00,A,5026.69,N,31-28.79,E,,,160114,,,A
$PGRMZ,129,m,3
$GPRMC,120933.00,A,5026.69,N,31-28.79,E,,,160114,,,A
$PGRMZ,129,m,3
$GPRMC,120934.00,A,5026.69,N,31-28.78,E,,,160114,,,A
$PGRMZ,129,m,3
$GPRMC,120935.00,A,5026.69,N,31-28.78,E,,,160114,,,A
$PGRMZ,129,m,3
$GPRMC,120938.00,A,5026.69,N,31-28.78,E,,,160114,,,A
$PGRMZ,129,m,3
$GPRMC,120939.00,A,5026.69,N,31-28.78,E,,,160114,,,A
$PGRMZ,129,m,3
$GPRMC,120940.00,A,5026.69,N,31-28.78,E,,,160114,,,A
$PGRMZ,128,m,3
$GPRMC,120941.00,A,5026.69,N,31-28.78,E,,,160114,,,A
$PGRMZ,128,m,3
$GPRMC,120942.00,A,5026.69,N,31-28.78,E,,,160114,,,A
$PGRMZ,128,m,3
$GPRMC,120943.00,A,5026.69,N,31-28.77,E,,,160114,,,A
$PGRMZ,127,m,3
$GPRMC,120944.00,A,5026.69,N,31-28.77,E,,,160114,,,A
$PGRMZ,127,m,3
$GPRMC,120945.00,A,5026.69,N,31-28.77,E,,,160114,,,A
$PGRMZ,127,m,3
$GPRMC,120946.00,A,5026.69,N,31-28.77,E,,,160114,,,A
$PGRMZ,127,m,3
$GPRMC,120947.00,A,5026.69,N,31-28.77,E,,,160114,,,A
$PGRMZ,127,m,3
$GPRMC,120948.00,A,5026.69,N,31-28.77,E,,,160114,,,A
$PGRMZ,126,m,3
$GPRMC,120949.00,A,5026.69,N,31-28.77,E,,,160114,,,A
$PGRMZ,126,m,3
$GPRMC,120950.00,A,5026.69,N,31-28.77,E,,,160114,,,A
$PGRMZ,126,m,3
$GPRMC,120951.00,A,5026.69,N,31-28.76,E,,,160114,,,A
$PGRMZ,126,m,3
$GPRMC,120952.00,A,5026.68,N,31-28.76,E,,,160114,,,A
$PGRMZ,126,m,3
$GPRMC,120953.00,A,5026.69,N,31-28.76,E,,,160114,,,A
$PGRMZ,126,m,3
$GPRMC,120955.00,A,5026.68,N,31-28.76,E,,,160114,,,A
$PGRMZ,126,m,3
$GPRMC,120956.00,A,5026.68,N,31-28.76,E,,,160114,,,A
$PGRMZ,126,m,3
$GPRMC,120957.00,A,5026.68,N,31-28.76,E,,,160114,,,A
$PGRMZ,127,m,3
$GPRMC,120959.00,A,5026.68,N,31-28.76,E,,,160114,,,A
$PGRMZ,127,m,3
$GPRMC,121000.00,A,5026.68,N,31-28.76,E,,,160114,,,A
$PGRMZ,127,m,3
$GPRMC,121007.00,A,5026.69,N,31-28.75,E,,,160114,,,A
$PGRMZ,126,m,3
$GPRMC,121008.00,A,5026.69,N,31-28.75,E,,,160114,,,A
$PGRMZ,126,m,3
$GPRMC,121009.00,A,5026.68,N,31-28.75,E,,,160114,,,A
$PGRMZ,126,m,3
$GPRMC,121011.00,A,5026.68,N,31-28.75,E,,,160114,,,A
$PGRMZ,126,m,3
$GPRMC,121012.00,A,5026.68,N,31-28.75,E,,,160114,,,A
$PGRMZ,126,m,3
$GPRMC,121013.00,A,5026.68,N,31-28.75,E,,,160114,,,A
$PGRMZ,126,m,3
$GPRMC,121014.00,A,5026.68,N,31-28.75,E,,,160114,,,A
$PGRMZ,126,m,3
$GPRMC,121015.00,A,5026.68,N,31-28.74,E,,,160114,,,A
$PGRMZ,126,m,3
$GPRMC,121016.00,A,5026.68,N,31-28.74,E,,,160114,,,A
$PGRMZ,125,m,3
$GPRMC,121017.00,A,5026.68,N,31-28.74,E,,,160114,,,A
$PGRMZ,125,m,3
$GPRMC,121038.00,A,5026.66,N,31-28.71,E,,,160114,,,A
$PGRMZ,173,m,3
$GPRMC,121039.00,A,5026.66,N,31-28.71,E,,,160114,,,A
$PGRMZ,170,m,3
$GPRMC,121040.00,A,5026.66,N,31-28.71,E,,,160114,,,A
$PGRMZ,166,m,3
$GPRMC,121041.00,A,5026.67,N,31-28.72,E,,,160114,,,A
$PGRMZ,144,m,3
$GPRMC,121042.00,A,5026.67,N,31-28.72,E,,,160114,,,A
$PGRMZ,142,m,3
$GPRMC,121043.00,A,5026.67,N,31-28.72,E,,,160114,,,A
$PGRMZ,141,m,3
$GPRMC,121044.00,A,5026.67,N,31-28.72,E,,,160114,,,A
$PGRMZ,143,m,3
$GPRMC,121057.00,A,5026.66,N,31-28.72,E,,,160114,,,A
$PGRMZ,134,m,3
$GPRMC,121058.00,A,5026.66,N,31-28.72,E,,,160114,,,A
$PGRMZ,133,m,3
$GPRMC,121059.00,A,5026.66,N,31-28.72,E,,,160114,,,A
$PGRMZ,133,m,3
$GPRMC,121100.00,A,5026.66,N,31-28.72,E,,,160114,,,A
$PGRMZ,133,m,3
$GPRMC,121101.00,A,5026.66,N,31-28.72,E,,,160114,,,A
$PGRMZ,133,m,3
$GPRMC,121104.00,A,5026.66,N,31-28.72,E,,,160114,,,A
$PGRMZ,133,m,3
$GPRMC,121105.00,A,5026.66,N,31-28.72,E,,,160114,,,A
$PGRMZ,133,m,3
$GPRMC,121106.00,A,5026.66,N,31-28.72,E,,,160114,,,A
$PGRMZ,133,m,3
$GPRMC,121107.00,A,5026.66,N,31-28.72,E,,,160114,,,A
$PGRMZ,133,m,3
$GPRMC,121109.00,A,5026.66,N,31-28.72,E,,,160114,,,A
$PGRMZ,132,m,3
$GPRMC,121111.00,A,5026.66,N,31-28.72,E,,,160114,,,A
$PGRMZ,132,m,3
$GPRMC,121112.00,A,5026.65,N,31-28.72,E,,,160114,,,A
$PGRMZ,132,m,3
$GPRMC,121113.00,A,5026.65,N,31-28.72,E,,,160114,,,A
$PGRMZ,131,m,3
$GPRMC,121114.00,A,5026.65,N,31-28.72,E,,,160114,,,A
$PGRMZ,131,m,3
$GPRMC,121115.00,A,5026.65,N,31-28.72,E,,,160114,,,A
$PGRMZ,131,m,3
$GPRMC,121116.00,A,5026.65,N,31-28.72,E,,,160114,,,A
$PGRMZ,131,m,3
$GPRMC,121117.00,A,5026.65,N,31-28.72,E,,,160114,,,A
$PGRMZ,130,m,3
$GPRMC,121118.00,A,5026.65,N,31-28.72,E,,,160114,,,A
$PGRMZ,130,m,3
$GPRMC,121119.00,A,5026.65,N,31-28.72,E,,,160114,,,A
$PGRMZ,130,m,3
$GPRMC,121120.00,A,5026.65,N,31-28.72,E,,,160114,,,A
$PGRMZ,130,m,3
$GPRMC,121121.00,A,5026.65,N,31-28.72,E,,,160114,,,A
$PGRMZ,130,m,3
$GPRMC,121122.00,A,5026.65,N,31-28.72,E,,,160114,,,A
$PGRMZ,130,m,3
$GPRMC,121124.00,A,5026.65,N,31-28.72,E,,,160114,,,A
$PGRMZ,129,m,3
$GPRMC,121125.00,A,5026.65,N,31-28.72,E,,,160114,,,A
$PGRMZ,130,m,3
$GPRMC,121126.00,A,5026.65,N,31-28.72,E,,,160114,,,A
$PGRMZ,130,m,3
$GPRMC,121127.00,A,5026.64,N,31-28.72,E,,,160114,,,A
$PGRMZ,130,m,3
$GPRMC,121128.00,A,5026.64,N,31-28.72,E,,,160114,,,A
$PGRMZ,130,m,3
$GPRMC,121129.00,A,5026.64,N,31-28.73,E,,,160114,,,A
$PGRMZ,130,m,3
$GPRMC,121130.00,A,5026.64,N,31-28.73,E,,,160114,,,A
$PGRMZ,130,m,3
$GPRMC,121131.00,A,5026.64,N,31-28.73,E,,,160114,,,A
$PGRMZ,130,m,3
$GPRMC,121132.00,A,5026.64,N,31-28.73,E,,,160114,,,A
$PGRMZ,130,m,3
$GPRMC,121133.00,A,5026.64,N,31-28.73,E,,,160114,,,A
$PGRMZ,130,m,3
$GPRMC,121134.00,A,5026.64,N,31-28.73,E,,,160114,,,A
$PGRMZ,131,m,3
$GPRMC,121135.00,A,5026.64,N,31-28.73,E,,,160114,,,A
$PGRMZ,131,m,3
$GPRMC,121136.00,A,5026.64,N,31-28.73,E,,,160114,,,A
$PGRMZ,130,m,3
$GPRMC,121137.00,A,5026.64,N,31-28.73,E,,,160114,,,A
$PGRMZ,131,m,3
$GPRMC,121138.00,A,5026.63,N,31-28.73,E,,,160114,,,A
$PGRMZ,131,m,3
$GPRMC,121139.00,A,5026.63,N,31-28.73,E,,,160114,,,A
$PGRMZ,131,m,3
$GPRMC,121140.00,A,5026.63,N,31-28.73,E,,,160114,,,A
$PGRMZ,131,m,3
$GPRMC,121141.00,A,5026.63,N,31-28.73,E,,,160114,,,A
$PGRMZ,131,m,3
$GPRMC,121142.00,A,5026.63,N,31-28.73,E,,,160114,,,A
$PGRMZ,131,m,3
$GPRMC,121143.00,A,5026.63,N,31-28.73,E,,,160114,,,A
$PGRMZ,131,m,3
$GPRMC,121144.00,A,5026.63,N,31-28.73,E,,,160114,,,A
$PGRMZ,131,m,3
$GPRMC,121145.00,A,5026.63,N,31-28.73,E,,,160114,,,A
$PGRMZ,131,m,3
$GPRMC,121146.00,A,5026.63,N,31-28.74,E,,,160114,,,A
$PGRMZ,131,m,3
$GPRMC,121147.00,A,5026.62,N,31-28.74,E,,,160114,,,A
$PGRMZ,131,m,3
$GPRMC,121148.00,A,5026.62,N,31-28.74,E,,,160114,,,A
$PGRMZ,131,m,3
$GPRMC,121149.00,A,5026.62,N,31-28.74,E,,,160114,,,A
$PGRMZ,131,m,3
$GPRMC,121150.00,A,5026.62,N,31-28.74,E,,,160114,,,A
$PGRMZ,131,m,3
$GPRMC,121151.00,A,5026.62,N,31-28.74,E,,,160114,,,A
$PGRMZ,131,m,3
$GPRMC,121152.00,A,5026.62,N,31-28.74,E,,,160114,,,A
$PGRMZ,132,m,3
$GPRMC,121153.00,A,5026.62,N,31-28.74,E,,,160114,,,A
$PGRMZ,132,m,3
$GPRMC,121155.00,A,5026.62,N,31-28.75,E,,,160114,,,A
$PGRMZ,132,m,3
$GPRMC,121156.00,A,5026.62,N,31-28.75,E,,,160114,,,A
$PGRMZ,132,m,3
$GPRMC,121157.00,A,5026.62,N,31-28.75,E,,,160114,,,A
$PGRMZ,132,m,3
$GPRMC,121158.00,A,5026.62,N,31-28.75,E,,,160114,,,A
$PGRMZ,132,m,3
$GPRMC,121159.00,A,5026.62,N,31-28.75,E,,,160114,,,A
$PGRMZ,132,m,3
$GPRMC,121200.00,A,5026.61,N,31-28.75,E,,,160114,,,A
$PGRMZ,132,m,3
$GPRMC,121201.00,A,5026.61,N,31-28.75,E,,,160114,,,A
$PGRMZ,132,m,3
$GPRMC,121202.00,A,5026.61,N,31-28.75,E,,,160114,,,A
$PGRMZ,132,m,3
$GPRMC,121203.00,A,5026.61,N,31-28.75,E,,,160114,,,A
$PGRMZ,132,m,3
$GPRMC,121204.00,A,5026.61,N,31-28.75,E,,,160114,,,A
$PGRMZ,132,m,3
$GPRMC,121205.00,A,5026.61,N,31-28.75,E,,,160114,,,A
$PGRMZ,132,m,3
$GPRMC,121206.00,A,5026.61,N,31-28.75,E,,,160114,,,A
$PGRMZ,132,m,3
$GPRMC,121207.00,A,5026.61,N,31-28.75,E,,,160114,,,A
$PGRMZ,132,m,3
$GPRMC,121208.00,A,5026.61,N,31-28.75,E,,,160114,,,A
$PGRMZ,132,m,3
$GPRMC,121209.00,A,5026.61,N,31-28.75,E,,,160114,,,A
$PGRMZ,132,m,3
$GPRMC,121210.00,A,5026.61,N,31-28.75,E,,,160114,,,A
$PGRMZ,132,m,3
$GPRMC,121211.00,A,5026.61,N,31-28.75,E,,,160114,,,A
$PGRMZ,133,m,3
$GPRMC,121212.00,A,5026.6,N,31-28.75,E,,,160114,,,A
$PGRMZ,133,m,3
$GPRMC,121213.00,A,5026.6,N,31-28.75,E,,,160114,,,A
$PGRMZ,133,m,3
$GPRMC,121214.00,A,5026.6,N,31-28.75,E,,,160114,,,A
$PGRMZ,133,m,3
$GPRMC,121215.00,A,5026.6,N,31-28.75,E,,,160114,,,A
$PGRMZ,133,m,3
$GPRMC,121216.00,A,5026.6,N,31-28.75,E,,,160114,,,A
$PGRMZ,133,m,3
$GPRMC,121217.00,A,5026.6,N,31-28.75,E,,,160114,,,A
$PGRMZ,133,m,3
$GPRMC,121219.00,A,5026.6,N,31-28.75,E,,,160114,,,A
$PGRMZ,133,m,3
$GPRMC,121220.00,A,5026.6,N,31-28.75,E,,,160114,,,A
$PGRMZ,133,m,3
$GPRMC,121224.00,A,5026.6,N,31-28.75,E,,,160114,,,A
$PGRMZ,132,m,3
$GPRMC,121225.00,A,5026.6,N,31-28.75,E,,,160114,,,A
$PGRMZ,132,m,3
$GPRMC,121226.00,A,5026.6,N,31-28.75,E,,,160114,,,A
$PGRMZ,132,m,3
$GPRMC,121227.00,A,5026.59,N,31-28.75,E,,,160114,,,A
$PGRMZ,132,m,3
$GPRMC,121229.00,A,5026.59,N,31-28.75,E,,,160114,,,A
$PGRMZ,132,m,3
$GPRMC,121230.00,A,5026.59,N,31-28.75,E,,,160114,,,A
$PGRMZ,132,m,3
$GPRMC,121231.00,A,5026.59,N,31-28.75,E,,,160114,,,A
$PGRMZ,132,m,3
$GPRMC,121232.00,A,5026.59,N,31-28.75,E,,,160114,,,A
$PGRMZ,132,m,3
$GPRMC,121233.00,A,5026.59,N,31-28.75,E,,,160114,,,A
$PGRMZ,132,m,3
$GPRMC,121234.00,A,5026.59,N,31-28.75,E,,,160114,,,A
$PGRMZ,132,m,3
$GPRMC,121235.00,A,5026.59,N,31-28.75,E,,,160114,,,A
$PGRMZ,132,m,3
$GPRMC,121236.00,A,5026.59,N,31-28.75,E,,,160114,,,A
$PGRMZ,132,m,3
$GPRMC,121237.00,A,5026.59,N,31-28.75,E,,,160114,,,A
$PGRMZ,132,m,3
$GPRMC,121238.00,A,5026.59,N,31-28.75,E,,,160114,,,A
$PGRMZ,132,m,3
$GPRMC,121239.00,A,5026.58,N,31-28.75,E,,,160114,,,A
$PGRMZ,132,m,3
$GPRMC,121240.00,A,5026.58,N,31-28.75,E,,,160114,,,A
$PGRMZ,132,m,3
$GPRMC,121241.00,A,5026.58,N,31-28.75,E,,,160114,,,A
$PGRMZ,132,m,3
$GPRMC,121243.00,A,5026.58,N,31-28.75,E,,,160114,,,A
$PGRMZ,132,m,3
$GPRMC,121245.00,A,5026.58,N,31-28.75,E,,,160114,,,A
$PGRMZ,132,m,3
$GPRMC,121246.00,A,5026.58,N,31-28.75,E,,,160114,,,A
$PGRMZ,132,m,3
$GPRMC,121248.00,A,5026.58,N,31-28.75,E,,,160114,,,A
$PGRMZ,132,m,3
$GPRMC,121249.00,A,5026.58,N,31-28.75,E,,,160114,,,A
$PGRMZ,132,m,3
$GPRMC,121251.00,A,5026.58,N,31-28.75,E,,,160114,,,A
$PGRMZ,132,m,3
$GPRMC,121252.00,A,5026.58,N,31-28.75,E,,,160114,,,A
$PGRMZ,132,m,3
$GPRMC,121253.00,A,5026.58,N,31-28.75,E,,,160114,,,A
$PGRMZ,132,m,3
$GPRMC,121254.00,A,5026.58,N,31-28.75,E,,,160114,,,A
$PGRMZ,132,m,3
$GPRMC,121256.00,A,5026.57,N,31-28.75,E,,,160114,,,A
$PGRMZ,132,m,3
$GPRMC,121300.00,A,5026.57,N,31-28.75,E,,,160114,,,A
$PGRMZ,131,m,3
$GPRMC,121301.00,A,5026.57,N,31-28.75,E,,,160114,,,A
$PGRMZ,131,m,3
$GPRMC,121302.00,A,5026.57,N,31-28.74,E,,,160114,,,A
$PGRMZ,131,m,3
$GPRMC,121303.00,A,5026.57,N,31-28.74,E,,,160114,,,A
$PGRMZ,131,m,3
$GPRMC,121304.00,A,5026.57,N,31-28.74,E,,,160114,,,A
$PGRMZ,131,m,3
$GPRMC,121305.00,A,5026.57,N,31-28.74,E,,,160114,,,A
$PGRMZ,131,m,3
$GPRMC,121306.00,A,5026.57,N,31-28.73,E,,,160114,,,A
$PGRMZ,131,m,3
$GPRMC,121307.00,A,5026.57,N,31-28.73,E,,,160114,,,A
$PGRMZ,131,m,3
$GPRMC,121308.00,A,5026.57,N,31-28.73,E,,,160114,,,A
$PGRMZ,131,m,3
$GPRMC,121309.00,A,5026.57,N,31-28.73,E,,,160114,,,A
$PGRMZ,131,m,3
$GPRMC,121310.00,A,5026.57,N,31-28.73,E,,,160114,,,A
$PGRMZ,130,m,3
$GPRMC,121311.00,A,5026.57,N,31-28.72,E,,,160114,,,A
$PGRMZ,130,m,3
$GPRMC,121312.00,A,5026.57,N,31-28.72,E,,,160114,,,A
$PGRMZ,130,m,3
$GPRMC,121313.00,A,5026.57,N,31-28.72,E,,,160114,,,A
$PGRMZ,130,m,3
$GPRMC,121314.00,A,5026.57,N,31-28.72,E,,,160114,,,A
$PGRMZ,130,m,3
$GPRMC,121315.00,A,5026.57,N,31-28.72,E,,,160114,,,A
$PGRMZ,130,m,3
$GPRMC,121316.00,A,5026.57,N,31-28.72,E,,,160114,,,A
$PGRMZ,130,m,3
$GPRMC,121317.00,A,5026.57,N,31-28.71,E,,,160114,,,A
$PGRMZ,130,m,3
$GPRMC,121318.00,A,5026.57,N,31-28.71,E,,,160114,,,A
$PGRMZ,130,m,3
$GPRMC,121319.00,A,5026.57,N,31-28.71,E,,,160114,,,A
$PGRMZ,130,m,3
$GPRMC,121320.00,A,5026.57,N,31-28.71,E,,,160114,,,A
$PGRMZ,130,m,3
$GPRMC,121321.00,A,5026.57,N,31-28.71,E,,,160114,,,A
$PGRMZ,129,m,3
$GPRMC,121322.00,A,5026.57,N,31-28.71,E,,,160114,,,A
$PGRMZ,129,m,3
$GPRMC,121323.00,A,5026.57,N,31-28.71,E,,,160114,,,A
$PGRMZ,129,m,3
$GPRMC,121324.00,A,5026.57,N,31-28.71,E,,,160114,,,A
$PGRMZ,129,m,3
$GPRMC,121325.00,A,5026.57,N,31-28.7,E,,,160114,,,A
$PGRMZ,129,m,3
$GPRMC,121326.00,A,5026.57,N,31-28.7,E,,,160114,,,A
$PGRMZ,129,m,3
$GPRMC,121327.00,A,5026.57,N,31-28.7,E,,,160114,,,A
$PGRMZ,129,m,3
$GPRMC,121328.00,A,5026.57,N,31-28.7,E,,,160114,,,A
$PGRMZ,129,m,3
$GPRMC,121329.00,A,5026.57,N,31-28.7,E,,,160114,,,A
$PGRMZ,129,m,3
$GPRMC,121330.00,A,5026.57,N,31-28.7,E,,,160114,,,A
$PGRMZ,129,m,3
$GPRMC,121331.00,A,5026.57,N,31-28.7,E,,,160114,,,A
$PGRMZ,129,m,3
$GPRMC,121332.00,A,5026.57,N,31-28.69,E,,,160114,,,A
$PGRMZ,129,m,3
$GPRMC,121333.00,A,5026.57,N,31-28.69,E,,,160114,,,A
$PGRMZ,129,m,3
$GPRMC,121334.00,A,5026.57,N,31-28.69,E,,,160114,,,A
$PGRMZ,129,m,3
$GPRMC,121335.00,A,5026.57,N,31-28.69,E,,,160114,,,A
$PGRMZ,129,m,3
$GPRMC,121336.00,A,5026.57,N,31-28.69,E,,,160114,,,A
$PGRMZ,129,m,3
$GPRMC,121337.00,A,5026.57,N,31-28.69,E,,,160114,,,A
$PGRMZ,129,m,3
$GPRMC,121338.00,A,5026.57,N,31-28.69,E,,,160114,,,A
$PGRMZ,129,m,3
$GPRMC,121339.00,A,5026.57,N,31-28.69,E,,,160114,,,A
$PGRMZ,129,m,3
$GPRMC,121340.00,A,5026.57,N,31-28.68,E,,,160114,,,A
$PGRMZ,129,m,3
$GPRMC,121341.00,A,5026.57,N,31-28.68,E,,,160114,,,A
$PGRMZ,129,m,3
$GPRMC,121342.00,A,5026.57,N,31-28.68,E,,,160114,,,A
$PGRMZ,129,m,3
$GPRMC,121343.00,A,5026.57,N,31-28.68,E,,,160114,,,A
$PGRMZ,129,m,3
$GPRMC,121344.00,A,5026.56,N,31-28.68,E,,,160114,,,A
$PGRMZ,129,m,3
$GPRMC,121345.00,A,5026.56,N,31-28.68,E,,,160114,,,A
$PGRMZ,129,m,3
$GPRMC,121346.00,A,5026.56,N,31-28.68,E,,,160114,,,A
$PGRMZ,129,m,3
$GPRMC,121348.00,A,5026.56,N,31-28.68,E,,,160114,,,A
$PGRMZ,129,m,3
$GPRMC,121349.00,A,5026.56,N,31-28.68,E,,,160114,,,A
$PGRMZ,129,m,3
$GPRMC,121350.00,A,5026.56,N,31-28.67,E,,,160114,,,A
$PGRMZ,130,m,3
$GPRMC,121351.00,A,5026.56,N,31-28.67,E,,,160114,,,A
$PGRMZ,130,m,3
$GPRMC,121352.00,A,5026.56,N,31-28.67,E,,,160114,,,A
$PGRMZ,130,m,3
$GPRMC,121353.00,A,5026.56,N,31-28.67,E,,,160114,,,A
$PGRMZ,130,m,3
$GPRMC,121354.00,A,5026.56,N,31-28.67,E,,,160114,,,A
$PGRMZ,130,m,3
$GPRMC,121356.00,A,5026.56,N,31-28.67,E,,,160114,,,A
$PGRMZ,130,m,3
$GPRMC,121357.00,A,5026.56,N,31-28.67,E,,,160114,,,A
$PGRMZ,130,m,3
$GPRMC,121358.00,A,5026.56,N,31-28.66,E,,,160114,,,A
$PGRMZ,130,m,3
$GPRMC,121359.00,A,5026.56,N,31-28.66,E,,,160114,,,A
$PGRMZ,130,m,3
$GPRMC,121402.00,A,5026.56,N,31-28.66,E,,,160114,,,A
$PGRMZ,130,m,3
$GPRMC,121403.00,A,5026.56,N,31-28.66,E,,,160114,,,A
$PGRMZ,130,m,3
$GPRMC,121404.00,A,5026.56,N,31-28.66,E,,,160114,,,A
$PGRMZ,130,m,3
$GPRMC,121405.00,A,5026.56,N,31-28.66,E,,,160114,,,A
$PGRMZ,130,m,3
$GPRMC,121406.00,A,5026.56,N,31-28.66,E,,,160114,,,A
$PGRMZ,130,m,3
$GPRMC,121407.00,A,5026.56,N,31-28.65,E,,,160114,,,A
$PGRMZ,130,m,3
$GPRMC,121408.00,A,5026.56,N,31-28.65,E,,,160114,,,A
$PGRMZ,130,m,3
$GPRMC,121409.00,A,5026.56,N,31-28.65,E,,,160114,,,A
$PGRMZ,130,m,3
$GPRMC,121410.00,A,5026.56,N,31-28.65,E,,,160114,,,A
$PGRMZ,130,m,3
$GPRMC,121411.00,A,5026.56,N,31-28.65,E,,,160114,,,A
$PGRMZ,130,m,3
$GPRMC,121412.00,A,5026.55,N,31-28.65,E,,,160114,,,A
$PGRMZ,130,m,3
$GPRMC,121413.00,A,5026.55,N,31-28.65,E,,,160114,,,A
$PGRMZ,130,m,3
$GPRMC,121414.00,A,5026.55,N,31-28.65,E,,,160114,,,A
$PGRMZ,130,m,3
$GPRMC,121415.00,A,5026.55,N,31-28.65,E,,,160114,,,A
$PGRMZ,130,m,3
$GPRMC,121417.00,A,5026.55,N,31-28.65,E,,,160114,,,A
$PGRMZ,130,m,3
$GPRMC,121418.00,A,5026.55,N,31-28.65,E,,,160114,,,A
$PGRMZ,130,m,3
$GPRMC,121419.00,A,5026.55,N,31-28.65,E,,,160114,,,A
$PGRMZ,130,m,3
$GPRMC,121421.00,A,5026.55,N,31-28.65,E,,,160114,,,A
$PGRMZ,130,m,3
$GPRMC,121422.00,A,5026.55,N,31-28.65,E,,,160114,,,A
$PGRMZ,131,m,3
$GPRMC,121423.00,A,5026.55,N,31-28.65,E,,,160114,,,A
$PGRMZ,131,m,3
$GPRMC,121424.00,A,5026.54,N,31-28.65,E,,,160114,,,A
$PGRMZ,131,m,3
$GPRMC,121425.00,A,5026.54,N,31-28.65,E,,,160114,,,A
$PGRMZ,131,m,3
$GPRMC,121426.00,A,5026.54,N,31-28.65,E,,,160114,,,A
$PGRMZ,131,m,3
$GPRMC,121427.00,A,5026.54,N,31-28.65,E,,,160114,,,A
$PGRMZ,131,m,3
$GPRMC,121428.00,A,5026.54,N,31-28.64,E,,,160114,,,A
$PGRMZ,131,m,3
$GPRMC,121430.00,A,5026.54,N,31-28.64,E,,,160114,,,A
$PGRMZ,131,m,3
$GPRMC,121431.00,A,5026.54,N,31-28.65,E,,,160114,,,A
$PGRMZ,132,m,3
$GPRMC,121432.00,A,5026.54,N,31-28.65,E,,,160114,,,A
$PGRMZ,132,m,3
$GPRMC,121433.00,A,5026.54,N,31-28.65,E,,,160114,,,A
$PGRMZ,132,m,3
$GPRMC,121435.00,A,5026.54,N,31-28.65,E,,,160114,,,A
$PGRMZ,132,m,3
$GPRMC,121436.00,A,5026.54,N,31-28.65,E,,,160114,,,A
$PGRMZ,132,m,3
$GPRMC,121437.00,A,5026.53,N,31-28.65,E,,,160114,,,A
$PGRMZ,132,m,3
$GPRMC,121438.00,A,5026.53,N,31-28.65,E,,,160114,,,A
$PGRMZ,132,m,3
$GPRMC,121439.00,A,5026.53,N,31-28.65,E,,,160114,,,A
$PGRMZ,132,m,3
$GPRMC,121440.00,A,5026.53,N,31-28.65,E,,,160114,,,A
$PGRMZ,132,m,3
$GPRMC,121441.00,A,5026.53,N,31-28.65,E,,,160114,,,A
$PGRMZ,132,m,3
$GPRMC,121442.00,A,5026.53,N,31-28.65,E,,,160114,,,A
$PGRMZ,132,m,3
$GPRMC,121443.00,A,5026.53,N,31-28.65,E,,,160114,,,A
$PGRMZ,132,m,3
$GPRMC,121444.00,A,5026.53,N,31-28.65,E,,,160114,,,A
$PGRMZ,132,m,3
$GPRMC,121445.00,A,5026.53,N,31-28.65,E,,,160114,,,A
$PGRMZ,132,m,3
$GPRMC,121446.00,A,5026.53,N,31-28.65,E,,,160114,,,A
$PGRMZ,132,m,3
$GPRMC,121447.00,A,5026.53,N,31-28.65,E,,,160114,,,A
$PGRMZ,132,m,3
$GPRMC,121448.00,A,5026.53,N,31-28.65,E,,,160114,,,A
$PGRMZ,132,m,3
$GPRMC,121449.00,A,5026.53,N,31-28.65,E,,,160114,,,A
$PGRMZ,132,m,3
$GPRMC,121450.00,A,5026.53,N,31-28.65,E,,,160114,,,A
$PGRMZ,132,m,3
$GPRMC,121451.00,A,5026.53,N,31-28.65,E,,,160114,,,A
$PGRMZ,132,m,3
$GPRMC,121452.00,A,5026.52,N,31-28.65,E,,,160114,,,A
$PGRMZ,131,m,3
$GPRMC,121453.00,A,5026.52,N,31-28.65,E,,,160114,,,A
$PGRMZ,131,m,3
$GPRMC,121454.00,A,5026.52,N,31-28.65,E,,,160114,,,A
$PGRMZ,131,m,3
$GPRMC,121456.00,A,5026.52,N,31-28.65,E,,,160114,,,A
$PGRMZ,131,m,3
$GPRMC,121457.00,A,5026.52,N,31-28.65,E,,,160114,,,A
$PGRMZ,131,m,3
$GPRMC,121458.00,A,5026.52,N,31-28.65,E,,,160114,,,A
$PGRMZ,131,m,3
$GPRMC,121500.00,A,5026.52,N,31-28.65,E,,,160114,,,A
$PGRMZ,131,m,3
$GPRMC,121501.00,A,5026.52,N,31-28.65,E,,,160114,,,A
$PGRMZ,131,m,3
$GPRMC,121502.00,A,5026.52,N,31-28.65,E,,,160114,,,A
$PGRMZ,131,m,3
$GPRMC,121503.00,A,5026.52,N,31-28.65,E,,,160114,,,A
$PGRMZ,131,m,3
$GPRMC,121504.00,A,5026.52,N,31-28.65,E,,,160114,,,A
$PGRMZ,131,m,3
$GPRMC,121505.00,A,5026.51,N,31-28.65,E,,,160114,,,A
$PGRMZ,131,m,3
$GPRMC,121506.00,A,5026.51,N,31-28.65,E,,,160114,,,A
$PGRMZ,130,m,3
$GPRMC,121507.00,A,5026.51,N,31-28.65,E,,,160114,,,A
$PGRMZ,130,m,3
$GPRMC,121508.00,A,5026.51,N,31-28.65,E,,,160114,,,A
$PGRMZ,130,m,3
$GPRMC,121509.00,A,5026.51,N,31-28.65,E,,,160114,,,A
$PGRMZ,130,m,3
$GPRMC,121511.00,A,5026.51,N,31-28.65,E,,,160114,,,A
$PGRMZ,130,m,3
$GPRMC,121512.00,A,5026.51,N,31-28.65,E,,,160114,,,A
$PGRMZ,130,m,3
$GPRMC,121514.00,A,5026.51,N,31-28.65,E,,,160114,,,A
$PGRMZ,130,m,3
$GPRMC,121515.00,A,5026.51,N,31-28.65,E,,,160114,,,A
$PGRMZ,130,m,3
$GPRMC,121516.00,A,5026.51,N,31-28.64,E,,,160114,,,A
$PGRMZ,130,m,3
$GPRMC,121517.00,A,5026.51,N,31-28.64,E,,,160114,,,A
$PGRMZ,130,m,3
$GPRMC,121518.00,A,5026.5,N,31-28.64,E,,,160114,,,A
$PGRMZ,130,m,3
$GPRMC,121519.00,A,5026.5,N,31-28.64,E,,,160114,,,A
$PGRMZ,130,m,3
$GPRMC,121520.00,A,5026.5,N,31-28.64,E,,,160114,,,A
$PGRMZ,130,m,3
$GPRMC,121521.00,A,5026.5,N,31-28.64,E,,,160114,,,A
$PGRMZ,129,m,3
$GPRMC,121522.00,A,5026.5,N,31-28.64,E,,,160114,,,A
$PGRMZ,129,m,3
$GPRMC,121523.00,A,5026.5,N,31-28.64,E,,,160114,,,A
$PGRMZ,130,m,3
$GPRMC,121524.00,A,5026.5,N,31-28.64,E,,,160114,,,A
$PGRMZ,130,m,3
$GPRMC,121525.00,A,5026.5,N,31-28.64,E,,,160114,,,A
$PGRMZ,130,m,3
$GPRMC,121526.00,A,5026.5,N,31-28.64,E,,,160114,,,A
$PGRMZ,130,m,3
$GPRMC,121527.00,A,5026.5,N,31-28.64,E,,,160114,,,A
$PGRMZ,129,m,3
$GPRMC,121528.00,A,5026.5,N,31-28.64,E,,,160114,,,A
$PGRMZ,129,m,3
$GPRMC,121529.00,A,5026.5,N,31-28.64,E,,,160114,,,A
$PGRMZ,129,m,3
$GPRMC,121530.00,A,5026.5,N,31-28.64,E,,,160114,,,A
$PGRMZ,129,m,3
$GPRMC,121531.00,A,5026.5,N,31-28.64,E,,,160114,,,A
$PGRMZ,129,m,3
$GPRMC,121532.00,A,5026.49,N,31-28.64,E,,,160114,,,A
$PGRMZ,129,m,3
$GPRMC,121533.00,A,5026.49,N,31-28.64,E,,,160114,,,A
$PGRMZ,129,m,3
$GPRMC,121534.00,A,5026.49,N,31-28.64,E,,,160114,,,A
$PGRMZ,129,m,3
$GPRMC,121535.00,A,5026.49,N,31-28.64,E,,,160114,,,A
$PGRMZ,129,m,3
$GPRMC,121536.00,A,5026.49,N,31-28.64,E,,,160114,,,A
$PGRMZ,129,m,3
$GPRMC,121537.00,A,5026.49,N,31-28.64,E,,,160114,,,A
$PGRMZ,129,m,3
$GPRMC,121538.00,A,5026.49,N,31-28.64,E,,,160114,,,A
$PGRMZ,129,m,3
$GPRMC,121539.00,A,5026.49,N,31-28.64,E,,,160114,,,A
$PGRMZ,129,m,3
$GPRMC,121540.00,A,5026.49,N,31-28.64,E,,,160114,,,A
$PGRMZ,129,m,3
$GPRMC,121541.00,A,5026.49,N,31-28.64,E,,,160114,,,A
$PGRMZ,129,m,3
$GPRMC,121542.00,A,5026.49,N,31-28.64,E,,,160114,,,A
$PGRMZ,129,m,3
$GPRMC,121543.00,A,5026.48,N,31-28.64,E,,,160114,,,A
$PGRMZ,129,m,3
$GPRMC,121544.00,A,5026.48,N,31-28.64,E,,,160114,,,A
$PGRMZ,129,m,3
$GPRMC,121545.00,A,5026.48,N,31-28.64,E,,,160114,,,A
$PGRMZ,129,m,3
$GPRMC,121546.00,A,5026.48,N,31-28.64,E,,,160114,,,A
$PGRMZ,129,m,3
$GPRMC,121547.00,A,5026.48,N,31-28.64,E,,,160114,,,A
$PGRMZ,129,m,3
$GPRMC,121548.00,A,5026.48,N,31-28.64,E,,,160114,,,A
$PGRMZ,129,m,3
$GPRMC,121549.00,A,5026.48,N,31-28.64,E,,,160114,,,A
$PGRMZ,129,m,3
$GPRMC,121550.00,A,5026.48,N,31-28.64,E,,,160114,,,A
$PGRMZ,129,m,3
$GPRMC,121551.00,A,5026.48,N,31-28.64,E,,,160114,,,A
$PGRMZ,129,m,3
$GPRMC,121552.00,A,5026.48,N,31-28.64,E,,,160114,,,A
$PGRMZ,129,m,3
$GPRMC,121553.00,A,5026.48,N,31-28.64,E,,,160114,,,A
$PGRMZ,129,m,3
$GPRMC,121554.00,A,5026.48,N,31-28.64,E,,,160114,,,A
$PGRMZ,129,m,3
$GPRMC,121555.00,A,5026.48,N,31-28.64,E,,,160114,,,A
$PGRMZ,129,m,3
$GPRMC,121556.00,A,5026.47,N,31-28.64,E,,,160114,,,A
$PGRMZ,129,m,3
$GPRMC,121557.00,A,5026.47,N,31-28.64,E,,,160114,,,A
$PGRMZ,129,m,3
$GPRMC,121559.00,A,5026.47,N,31-28.64,E,,,160114,,,A
$PGRMZ,129,m,3
$GPRMC,121600.00,A,5026.47,N,31-28.64,E,,,160114,,,A
$PGRMZ,129,m,3
$GPRMC,121601.00,A,5026.47,N,31-28.64,E,,,160114,,,A
$PGRMZ,129,m,3
$GPRMC,121613.00,A,5026.47,N,31-28.64,E,,,160114,,,A
$PGRMZ,128,m,3
$GPRMC,121614.00,A,5026.47,N,31-28.64,E,,,160114,,,A
$PGRMZ,128,m,3
$GPRMC,121615.00,A,5026.47,N,31-28.64,E,,,160114,,,A
$PGRMZ,128,m,3
$GPRMC,121616.00,A,5026.47,N,31-28.65,E,,,160114,,,A
$PGRMZ,128,m,3
$GPRMC,121617.00,A,5026.47,N,31-28.65,E,,,160114,,,A
$PGRMZ,128,m,3
$GPRMC,121621.00,A,5026.47,N,31-28.65,E,,,160114,,,A
$PGRMZ,128,m,3
$GPRMC,121623.00,A,5026.47,N,31-28.65,E,,,160114,,,A
$PGRMZ,128,m,3
$GPRMC,121624.00,A,5026.47,N,31-28.65,E,,,160114,,,A
$PGRMZ,128,m,3
$GPRMC,121634.00,A,5026.47,N,31-28.65,E,,,160114,,,A
$PGRMZ,128,m,3
$GPRMC,121637.00,A,5026.47,N,31-28.65,E,,,160114,,,A
$PGRMZ,128,m,3
$GPRMC,121638.00,A,5026.46,N,31-28.65,E,,,160114,,,A
$PGRMZ,128,m,3
$GPRMC,121640.00,A,5026.46,N,31-28.65,E,,,160114,,,A
$PGRMZ,128,m,3
$GPRMC,121641.00,A,5026.46,N,31-28.65,E,,,160114,,,A
$PGRMZ,128,m,3
$GPRMC,121642.00,A,5026.46,N,31-28.64,E,,,160114,,,A
$PGRMZ,128,m,3
$GPRMC,121643.00,A,5026.46,N,31-28.64,E,,,160114,,,A
$PGRMZ,128,m,3
$GPRMC,121645.00,A,5026.46,N,31-28.63,E,,,160114,,,A
$PGRMZ,128,m,3
$GPRMC,121646.00,A,5026.46,N,31-28.63,E,,,160114,,,A
$PGRMZ,128,m,3
$GPRMC,121647.00,A,5026.46,N,31-28.62,E,,,160114,,,A
$PGRMZ,128,m,3
$GPRMC,121648.00,A,5026.46,N,31-28.62,E,,,160114,,,A
$PGRMZ,128,m,3
$GPRMC,121649.00,A,5026.45,N,31-28.61,E,,,160114,,,A
$PGRMZ,129,m,3
$GPRMC,121650.00,A,5026.45,N,31-28.61,E,,,160114,,,A
$PGRMZ,129,m,3
$GPRMC,121652.00,A,5026.45,N,31-28.6,E,,,160114,,,A
$PGRMZ,129,m,3
$GPRMC,123725.00,A,5026.45,N,31-28.55,E,,,160114,,,A
$PGRMZ,113,m,3
$GPRMC,123727.00,A,5026.45,N,31-28.55,E,,,160114,,,A
$PGRMZ,114,m,3
$GPRMC,123728.00,A,5026.45,N,31-28.55,E,,,160114,,,A
$PGRMZ,114,m,3
$GPRMC,123729.00,A,5026.45,N,31-28.56,E,,,160114,,,A
$PGRMZ,115,m,3
$GPRMC,123730.00,A,5026.45,N,31-28.55,E,,,160114,,,A
$PGRMZ,114,m,3
$GPRMC,123731.00,A,5026.45,N,31-28.55,E,,,160114,,,A
$PGRMZ,114,m,3
$GPRMC,123732.00,A,5026.45,N,31-28.55,E,,,160114,,,A
$PGRMZ,120,m,3
$GPRMC,123733.00,A,5026.45,N,31-28.56,E,,,160114,,,A
$PGRMZ,123,m,3
$GPRMC,123734.00,A,5026.45,N,31-28.56,E,,,160114,,,A
$PGRMZ,124,m,3
$GPRMC,123735.00,A,5026.45,N,31-28.55,E,,,160114,,,A
$PGRMZ,125,m,3
$GPRMC,123736.00,A,5026.45,N,31-28.55,E,,,160114,,,A
$PGRMZ,126,m,3
$GPRMC,123737.00,A,5026.45,N,31-28.55,E,,,160114,,,A
$PGRMZ,126,m,3
$GPRMC,123739.00,A,5026.45,N,31-28.55,E,,,160114,,,A
$PGRMZ,125,m,3
$GPRMC,123740.00,A,5026.45,N,31-28.55,E,,,160114,,,A
$PGRMZ,124,m,3
$GPRMC,123741.00,A,5026.44,N,31-28.55,E,,,160114,,,A
$PGRMZ,123,m,3
$GPRMC,123743.00,A,5026.44,N,31-28.55,E,,,160114,,,A
$PGRMZ,123,m,3
$GPRMC,123744.00,A,5026.44,N,31-28.55,E,,,160114,,,A
$PGRMZ,123,m,3
$GPRMC,123745.00,A,5026.44,N,31-28.55,E,,,160114,,,A
$PGRMZ,123,m,3
$GPRMC,123746.00,A,5026.44,N,31-28.56,E,,,160114,,,A
$PGRMZ,123,m,3
$GPRMC,123747.00,A,5026.44,N,31-28.56,E,,,160114,,,A
$PGRMZ,123,m,3
$GPRMC,123748.00,A,5026.44,N,31-28.56,E,,,160114,,,A
$PGRMZ,123,m,3
$GPRMC,123749.00,A,5026.45,N,31-28.56,E,,,160114,,,A
$PGRMZ,123,m,3
$GPRMC,123756.00,A,5026.44,N,31-28.56,E,,,160114,,,A
$PGRMZ,123,m,3
$GPRMC,123757.00,A,5026.44,N,31-28.56,E,,,160114,,,A
$PGRMZ,123,m,3
$GPRMC,123758.00,A,5026.44,N,31-28.56,E,,,160114,,,A
$PGRMZ,124,m,3
$GPRMC,123759.00,A,5026.44,N,31-28.56,E,,,160114,,,A
$PGRMZ,124,m,3
$GPRMC,124017.00,A,5026.45,N,31-28.55,E,,,160114,,,A
$PGRMZ,136,m,3
$GPRMC,124018.00,A,5026.45,N,31-28.55,E,,,160114,,,A
$PGRMZ,134,m,3
$GPRMC,124019.00,A,5026.45,N,31-28.55,E,,,160114,,,A
$PGRMZ,135,m,3
$GPRMC,124020.00,A,5026.46,N,31-28.55,E,,,160114,,,A
$PGRMZ,136,m,3
$GPRMC,124021.00,A,5026.46,N,31-28.55,E,,,160114,,,A
$PGRMZ,136,m,3
$GPRMC,124023.00,A,5026.46,N,31-28.55,E,,,160114,,,A
$PGRMZ,137,m,3
$GPRMC,124024.00,A,5026.46,N,31-28.55,E,,,160114,,,A
$PGRMZ,137,m,3
$GPRMC,124033.00,A,5026.48,N,31-28.55,E,,,160114,,,A
$PGRMZ,142,m,3
$GPRMC,124034.00,A,5026.47,N,31-28.55,E,,,160114,,,A
$PGRMZ,145,m,3
$GPRMC,124035.00,A,5026.47,N,31-28.55,E,,,160114,,,A
$PGRMZ,147,m,3
$GPRMC,124036.00,A,5026.46,N,31-28.55,E,,,160114,,,A
$PGRMZ,160,m,3
$GPRMC,124037.00,A,5026.46,N,31-28.56,E,,,160114,,,A
$PGRMZ,163,m,3
$GPRMC,124038.00,A,5026.46,N,31-28.55,E,,,160114,,,A
$PGRMZ,151,m,3
$GPRMC,124039.00,A,5026.46,N,31-28.55,E,,,160114,,,A
$PGRMZ,145,m,3
$GPRMC,124042.00,A,5026.46,N,31-28.55,E,,,160114,,,A
$PGRMZ,148,m,3
$GPRMC,124045.00,A,5026.46,N,31-28.55,E,,,160114,,,A
$PGRMZ,148,m,3
$GPRMC,124046.00,A,5026.46,N,31-28.55,E,,,160114,,,A
$PGRMZ,149,m,3
$GPRMC,124047.00,A,5026.46,N,31-28.55,E,,,160114,,,A
$PGRMZ,149,m,3
$GPRMC,124049.00,A,5026.46,N,31-28.55,E,,,160114,,,A
$PGRMZ,150,m,3
$GPRMC,124050.00,A,5026.46,N,31-28.55,E,,,160114,,,A
$PGRMZ,150,m,3
$GPRMC,124052.00,A,5026.47,N,31-28.55,E,,,160114,,,A
$PGRMZ,150,m,3
$GPRMC,124053.00,A,5026.47,N,31-28.55,E,,,160114,,,A
$PGRMZ,150,m,3
$GPRMC,124057.00,A,5026.47,N,31-28.55,E,,,160114,,,A
$PGRMZ,151,m,3
$GPRMC,124058.00,A,5026.47,N,31-28.55,E,,,160114,,,A
$PGRMZ,151,m,3
$GPRMC,124101.00,A,5026.47,N,31-28.55,E,,,160114,,,A
$PGRMZ,151,m,3
$GPRMC,124102.00,A,5026.47,N,31-28.55,E,,,160114,,,A
$PGRMZ,151,m,3
$GPRMC,124103.00,A,5026.47,N,31-28.55,E,,,160114,,,A
$PGRMZ,151,m,3
$GPRMC,124104.00,A,5026.47,N,31-28.55,E,,,160114,,,A
$PGRMZ,149,m,3
$GPRMC,124105.00,A,5026.47,N,31-28.55,E,,,160114,,,A
$PGRMZ,147,m,3
$GPRMC,124106.00,A,5026.47,N,31-28.55,E,,,160114,,,A
$PGRMZ,145,m,3
$GPRMC,124115.00,A,5026.48,N,31-28.55,E,,,160114,,,A
$PGRMZ,141,m,3
$GPRMC,124118.00,A,5026.47,N,31-28.54,E,,,160114,,,A
$PGRMZ,139,m,3
$GPRMC,124119.00,A,5026.47,N,31-28.54,E,,,160114,,,A
$PGRMZ,139,m,3
$GPRMC,124120.00,A,5026.47,N,31-28.54,E,,,160114,,,A
$PGRMZ,139,m,3
$GPRMC,124122.00,A,5026.47,N,31-28.54,E,,,160114,,,A
$PGRMZ,139,m,3
$GPRMC,124123.00,A,5026.47,N,31-28.54,E,,,160114,,,A
$PGRMZ,138,m,3
$GPRMC,124126.00,A,5026.47,N,31-28.54,E,,,160114,,,A
$PGRMZ,138,m,3
$GPRMC,124127.00,A,5026.47,N,31-28.54,E,,,160114,,,A
$PGRMZ,138,m,3
$GPRMC,124128.00,A,5026.47,N,31-28.54,E,,,160114,,,A
$PGRMZ,138,m,3
$GPRMC,124129.00,A,5026.47,N,31-28.54,E,,,160114,,,A
$PGRMZ,138,m,3
$GPRMC,124130.00,A,5026.47,N,31-28.55,E,,,160114,,,A
$PGRMZ,138,m,3
$GPRMC,124131.00,A,5026.47,N,31-28.55,E,,,160114,,,A
$PGRMZ,138,m,3
$GPRMC,124132.00,A,5026.47,N,31-28.56,E,,,160114,,,A
$PGRMZ,138,m,3
$GPRMC,124133.00,A,5026.47,N,31-28.56,E,,,160114,,,A
$PGRMZ,138,m,3
$GPRMC,124134.00,A,5026.47,N,31-28.56,E,,,160114,,,A
$PGRMZ,138,m,3
$GPRMC,124135.00,A,5026.47,N,31-28.56,E,,,160114,,,A
$PGRMZ,138,m,3
$GPRMC,124136.00,A,5026.47,N,31-28.57,E,,,160114,,,A
$PGRMZ,138,m,3
$GPRMC,124137.00,A,5026.47,N,31-28.57,E,,,160114,,,A
$PGRMZ,138,m,3
$GPRMC,124138.00,A,5026.47,N,31-28.57,E,,,160114,,,A
$PGRMZ,138,m,3
$GPRMC,124139.00,A,5026.47,N,31-28.57,E,,,160114,,,A
$PGRMZ,138,m,3
$GPRMC,124140.00,A,5026.47,N,31-28.58,E,,,160114,,,A
$PGRMZ,138,m,3
$GPRMC,124141.00,A,5026.47,N,31-28.58,E,,,160114,,,A
$PGRMZ,138,m,3
$GPRMC,124142.00,A,5026.47,N,31-28.58,E,,,160114,,,A
$PGRMZ,138,m,3
$GPRMC,124143.00,A,5026.47,N,31-28.58,E,,,160114,,,A
$PGRMZ,138,m,3
$GPRMC,124238.00,A,5026.46,N,31-28.57,E,,,160114,,,A
$PGRMZ,136,m,3
$GPRMC,124239.00,A,5026.47,N,31-28.57,E,,,160114,,,A
$PGRMZ,138,m,3
$GPRMC,124240.00,A,5026.47,N,31-28.57,E,,,160114,,,A
$PGRMZ,138,m,3
$GPRMC,124241.00,A,5026.47,N,31-28.57,E,,,160114,,,A
$PGRMZ,137,m,3
$GPRMC,124242.00,A,5026.47,N,31-28.57,E,,,160114,,,A
$PGRMZ,137,m,3
$GPRMC,124244.00,A,5026.46,N,31-28.57,E,,,160114,,,A
$PGRMZ,139,m,3
$GPRMC,124245.00,A,5026.46,N,31-28.57,E,,,160114,,,A
$PGRMZ,140,m,3
$GPRMC,124248.00,A,5026.46,N,31-28.58,E,,,160114,,,A
$PGRMZ,141,m,3
$GPRMC,124249.00,A,5026.46,N,31-28.58,E,,,160114,,,A
$PGRMZ,141,m,3
$GPRMC,124253.00,A,5026.46,N,31-28.58,E,,,160114,,,A
$PGRMZ,145,m,3
$GPRMC,124254.00,A,5026.46,N,31-28.58,E,,,160114,,,A
$PGRMZ,147,m,3
$GPRMC,124255.00,A,5026.45,N,31-28.58,E,,,160114,,,A
$PGRMZ,150,m,3
$GPRMC,124256.00,A,5026.45,N,31-28.58,E,,,160114,,,A
$PGRMZ,152,m,3
$GPRMC,124257.00,A,5026.45,N,31-28.58,E,,,160114,,,A
$PGRMZ,154,m,3
$GPRMC,124318.00,A,5026.47,N,31-28.58,E,,,160114,,,A
$PGRMZ,135,m,3
$GPRMC,124319.00,A,5026.47,N,31-28.57,E,,,160114,,,A
$PGRMZ,134,m,3
$GPRMC,124323.00,A,5026.47,N,31-28.57,E,,,160114,,,A
$PGRMZ,133,m,3
$GPRMC,124324.00,A,5026.47,N,31-28.56,E,,,160114,,,A
$PGRMZ,133,m,3
$GPRMC,124325.00,A,5026.47,N,31-28.57,E,,,160114,,,A
$PGRMZ,132,m,3
$GPRMC,124326.00,A,5026.47,N,31-28.56,E,,,160114,,,A
$PGRMZ,132,m,3
$GPRMC,124327.00,A,5026.47,N,31-28.56,E,,,160114,,,A
$PGRMZ,132,m,3
$GPRMC,124329.00,A,5026.47,N,31-28.56,E,,,160114,,,A
$PGRMZ,132,m,3
$GPRMC,124330.00,A,5026.47,N,31-28.56,E,,,160114,,,A
$PGRMZ,132,m,3
$GPRMC,124331.00,A,5026.48,N,31-28.56,E,,,160114,,,A
$PGRMZ,131,m,3
$GPRMC,124332.00,A,5026.48,N,31-28.55,E,,,160114,,,A
$PGRMZ,131,m,3
$GPRMC,124333.00,A,5026.48,N,31-28.55,E,,,160114,,,A
$PGRMZ,131,m,3
$GPRMC,124334.00,A,5026.48,N,31-28.55,E,,,160114,,,A
$PGRMZ,131,m,3
$GPRMC,124335.00,A,5026.48,N,31-28.55,E,,,160114,,,A
$PGRMZ,131,m,3
$GPRMC,124336.00,A,5026.48,N,31-28.55,E,,,160114,,,A
$PGRMZ,131,m,3
$GPRMC,124337.00,A,5026.48,N,31-28.55,E,,,160114,,,A
$PGRMZ,131,m,3
$GPRMC,124338.00,A,5026.48,N,31-28.55,E,,,160114,,,A
$PGRMZ,131,m,3
$GPRMC,124339.00,A,5026.48,N,31-28.55,E,,,160114,,,A
$PGRMZ,131,m,3
$GPRMC,124359.00,A,5026.47,N,31-28.57,E,,,160114,,,A
$PGRMZ,134,m,3
$GPRMC,124404.00,A,5026.47,N,31-28.57,E,,,160114,,,A
$PGRMZ,134,m,3
$GPRMC,124507.00,A,5026.44,N,31-28.6,E,,,160114,,,A
$PGRMZ,132,m,3
$GPRMC,124510.00,A,5026.44,N,31-28.6,E,,,160114,,,A
$PGRMZ,129,m,3
$GPRMC,124511.00,A,5026.44,N,31-28.6,E,,,160114,,,A
$PGRMZ,129,m,3
$GPRMC,124517.00,A,5026.44,N,31-28.59,E,,,160114,,,A
$PGRMZ,129,m,3
$GPRMC,124518.00,A,5026.45,N,31-28.59,E,,,160114,,,A
$PGRMZ,129,m,3
$GPRMC,124519.00,A,5026.45,N,31-28.59,E,,,160114,,,A
$PGRMZ,129,m,3
$GPRMC,124520.00,A,5026.45,N,31-28.58,E,,,160114,,,A
$PGRMZ,130,m,3
$GPRMC,124521.00,A,5026.45,N,31-28.58,E,,,160114,,,A
$PGRMZ,130,m,3
$GPRMC,124522.00,A,5026.45,N,31-28.58,E,,,160114,,,A
$PGRMZ,130,m,3
$GPRMC,124523.00,A,5026.46,N,31-28.57,E,,,160114,,,A
$PGRMZ,130,m,3
$GPRMC,124524.00,A,5026.46,N,31-28.57,E,,,160114,,,A
$PGRMZ,130,m,3
$GPRMC,124525.00,A,5026.46,N,31-28.57,E,,,160114,,,A
$PGRMZ,130,m,3
$GPRMC,124526.00,A,5026.46,N,31-28.57,E,,,160114,,,A
$PGRMZ,130,m,3
$GPRMC,124527.00,A,5026.46,N,31-28.57,E,,,160114,,,A
$PGRMZ,130,m,3
$GPRMC,124528.00,A,5026.47,N,31-28.57,E,,,160114,,,A
$PGRMZ,130,m,3
$GPRMC,124541.00,A,5026.48,N,31-28.57,E,,,160114,,,A
$PGRMZ,129,m,3
$GPRMC,124542.00,A,5026.48,N,31-28.57,E,,,160114,,,A
$PGRMZ,129,m,3
$GPRMC,124631.00,A,5026.46,N,31-28.55,E,,,160114,,,A
$PGRMZ,132,m,3
$GPRMC,124708.00,A,5026.46,N,31-28.58,E,,,160114,,,A
$PGRMZ,130,m,3
$GPRMC,124709.00,A,5026.46,N,31-28.58,E,,,160114,,,A
$PGRMZ,130,m,3
$GPRMC,124710.00,A,5026.46,N,31-28.58,E,,,160114,,,A
$PGRMZ,130,m,3
$GPRMC,124711.00,A,5026.46,N,31-28.59,E,,,160114,,,A
$PGRMZ,130,m,3
$GPRMC,124713.00,A,5026.46,N,31-28.59,E,,,160114,,,A
$PGRMZ,130,m,3
$GPRMC,124714.00,A,5026.46,N,31-28.59,E,,,160114,,,A
$PGRMZ,130,m,3
$GPRMC,124715.00,A,5026.46,N,31-28.59,E,,,160114,,,A
$PGRMZ,130,m,3
$GPRMC,124716.00,A,5026.46,N,31-28.58,E,,,160114,,,A
$PGRMZ,130,m,3
$GPRMC,124717.00,A,5026.47,N,31-28.58,E,,,160114,,,A
$PGRMZ,130,m,3
$GPRMC,124719.00,A,5026.47,N,31-28.58,E,,,160114,,,A
$PGRMZ,130,m,3
$GPRMC,124720.00,A,5026.47,N,31-28.57,E,,,160114,,,A
$PGRMZ,130,m,3
$GPRMC,124721.00,A,5026.47,N,31-28.57,E,,,160114,,,A
$PGRMZ,130,m,3
$GPRMC,124722.00,A,5026.47,N,31-28.57,E,,,160114,,,A
$PGRMZ,129,m,3
$GPRMC,124724.00,A,5026.47,N,31-28.56,E,,,160114,,,A
$PGRMZ,129,m,3
$GPRMC,124725.00,A,5026.46,N,31-28.56,E,,,160114,,,A
$PGRMZ,129,m,3
$GPRMC,124726.00,A,5026.46,N,31-28.56,E,,,160114,,,A
$PGRMZ,129,m,3
$GPRMC,124727.00,A,5026.46,N,31-28.56,E,,,160114,,,A
$PGRMZ,129,m,3
$GPRMC,124728.00,A,5026.46,N,31-28.56,E,,,160114,,,A
$PGRMZ,129,m,3
$GPRMC,124729.00,A,5026.46,N,31-28.56,E,,,160114,,,A
$PGRMZ,129,m,3
$GPRMC,124730.00,A,5026.46,N,31-28.56,E,,,160114,,,A
$PGRMZ,129,m,3
$GPRMC,124733.00,A,5026.46,N,31-28.55,E,,,160114,,,A
$PGRMZ,128,m,3
$GPRMC,124734.00,A,5026.46,N,31-28.55,E,,,160114,,,A
$PGRMZ,128,m,3
$GPRMC,124735.00,A,5026.46,N,31-28.55,E,,,160114,,,A
$PGRMZ,128,m,3
$GPRMC,124739.00,A,5026.46,N,31-28.55,E,,,160114,,,A
$PGRMZ,128,m,3
$GPRMC,124740.00,A,5026.46,N,31-28.55,E,,,160114,,,A
$PGRMZ,128,m,3
$GPRMC,124741.00,A,5026.46,N,31-28.55,E,,,160114,,,A
$PGRMZ,127,m,3
$GPRMC,124742.00,A,5026.46,N,31-28.55,E,,,160114,,,A
$PGRMZ,127,m,3
$GPRMC,124743.00,A,5026.46,N,31-28.55,E,,,160114,,,A
$PGRMZ,127,m,3
$GPRMC,124744.00,A,5026.46,N,31-28.55,E,,,160114,,,A
$PGRMZ,127,m,3
$GPRMC,124745.00,A,5026.46,N,31-28.54,E,,,160114,,,A
$PGRMZ,127,m,3
$GPRMC,124746.00,A,5026.46,N,31-28.54,E,,,160114,,,A
$PGRMZ,126,m,3
$GPRMC,124747.00,A,5026.46,N,31-28.54,E,,,160114,,,A
$PGRMZ,126,m,3
$GPRMC,124748.00,A,5026.46,N,31-28.54,E,,,160114,,,A
$PGRMZ,126,m,3
$GPRMC,124749.00,A,5026.45,N,31-28.54,E,,,160114,,,A
$PGRMZ,126,m,3
$GPRMC,124750.00,A,5026.45,N,31-28.54,E,,,160114,,,A
$PGRMZ,126,m,3
$GPRMC,124751.00,A,5026.45,N,31-28.54,E,,,160114,,,A
$PGRMZ,126,m,3
$GPRMC,124752.00,A,5026.45,N,31-28.54,E,,,160114,,,A
$PGRMZ,126,m,3
$GPRMC,124757.00,A,5026.45,N,31-28.54,E,,,160114,,,A
$PGRMZ,127,m,3
$GPRMC,124758.00,A,5026.45,N,31-28.54,E,,,160114,,,A
$PGRMZ,127,m,3
$GPRMC,124802.00,A,5026.45,N,31-28.54,E,,,160114,,,A
$PGRMZ,128,m,3
$GPRMC,124807.00,A,5026.46,N,31-28.54,E,,,160114,,,A
$PGRMZ,128,m,3
$GPRMC,124808.00,A,5026.46,N,31-28.54,E,,,160114,,,A
$PGRMZ,128,m,3
$GPRMC,124809.00,A,5026.46,N,31-28.54,E,,,160114,,,A
$PGRMZ,128,m,3
$GPRMC,124810.00,A,5026.46,N,31-28.54,E,,,160114,,,A
$PGRMZ,128,m,3
$GPRMC,124811.00,A,5026.47,N,31-28.54,E,,,160114,,,A
$PGRMZ,128,m,3
$GPRMC,124812.00,A,5026.47,N,31-28.54,E,,,160114,,,A
$PGRMZ,128,m,3
$GPRMC,124813.00,A,5026.47,N,31-28.54,E,,,160114,,,A
$PGRMZ,128,m,3
$GPRMC,124814.00,A,5026.47,N,31-28.54,E,,,160114,,,A
$PGRMZ,128,m,3
$GPRMC,124815.00,A,5026.47,N,31-28.53,E,,,160114,,,A
$PGRMZ,128,m,3
$GPRMC,124816.00,A,5026.47,N,31-28.53,E,,,160114,,,A
$PGRMZ,128,m,3
$GPRMC,124817.00,A,5026.47,N,31-28.53,E,,,160114,,,A
$PGRMZ,128,m,3
$GPRMC,124818.00,A,5026.47,N,31-28.54,E,,,160114,,,A
$PGRMZ,128,m,3
$GPRMC,124819.00,A,5026.47,N,31-28.54,E,,,160114,,,A
$PGRMZ,128,m,3
$GPRMC,124820.00,A,5026.47,N,31-28.54,E,,,160114,,,A
$PGRMZ,128,m,3
$GPRMC,124821.00,A,5026.47,N,31-28.54,E,,,160114,,,A
$PGRMZ,128,m,3
$GPRMC,124905.00,A,5026.45,N,31-28.56,E,,,160114,,,A
$PGRMZ,128,m,3
$GPRMC,124906.00,A,5026.45,N,31-28.56,E,,,160114,,,A
$PGRMZ,128,m,3
$GPRMC,124907.00,A,5026.45,N,31-28.56,E,,,160114,,,A
$PGRMZ,128,m,3
$GPRMC,124908.00,A,5026.44,N,31-28.56,E,,,160114,,,A
$PGRMZ,128,m,3
$GPRMC,124909.00,A,5026.44,N,31-28.55,E,,,160114,,,A
$PGRMZ,128,m,3
$GPRMC,124910.00,A,5026.44,N,31-28.55,E,,,160114,,,A
$PGRMZ,128,m,3
$GPRMC,124911.00,A,5026.44,N,31-28.55,E,,,160114,,,A
$PGRMZ,128,m,3
$GPRMC,124912.00,A,5026.45,N,31-28.55,E,,,160114,,,A
$PGRMZ,128,m,3
$GPRMC,124913.00,A,5026.45,N,31-28.55,E,,,160114,,,A
$PGRMZ,128,m,3
$GPRMC,124914.00,A,5026.45,N,31-28.55,E,,,160114,,,A
$PGRMZ,128,m,3
$GPRMC,124915.00,A,5026.45,N,31-28.55,E,,,160114,,,A
$PGRMZ,128,m,3
$GPRMC,124917.00,A,5026.45,N,31-28.55,E,,,160114,,,A
$PGRMZ,128,m,3
$GPRMC,124918.00,A,5026.45,N,31-28.55,E,,,160114,,,A
$PGRMZ,128,m,3
$GPRMC,124923.00,A,5026.44,N,31-28.55,E,,,160114,,,A
$PGRMZ,128,m,3
$GPRMC,124925.00,A,5026.44,N,31-28.55,E,,,160114,,,A
$PGRMZ,128,m,3
$GPRMC,124926.00,A,5026.44,N,31-28.55,E,,,160114,,,A
$PGRMZ,128,m,3
$GPRMC,124927.00,A,5026.44,N,31-28.55,E,,,160114,,,A
$PGRMZ,128,m,3
$GPRMC,124930.00,A,5026.44,N,31-28.55,E,,,160114,,,A
$PGRMZ,128,m,3
$GPRMC,124931.00,A,5026.44,N,31-28.54,E,,,160114,,,A
$PGRMZ,128,m,3
$GPRMC,124932.00,A,5026.44,N,31-28.53,E,,,160114,,,A
$PGRMZ,128,m,3
$GPRMC,124933.00,A,5026.44,N,31-28.52,E,,,160114,,,A
$PGRMZ,128,m,3
$GPRMC,124934.00,A,5026.44,N,31-28.52,E,,,160114,,,A
$PGRMZ,128,m,3
$GPRMC,124935.00,A,5026.44,N,31-28.51,E,,,160114,,,A
$PGRMZ,128,m,3
$GPRMC,124936.00,A,5026.44,N,31-28.51,E,,,160114,,,A
$PGRMZ,128,m,3
$GPRMC,124937.00,A,5026.44,N,31-28.51,E,,,160114,,,A
$PGRMZ,128,m,3
$GPRMC,124938.00,A,5026.44,N,31-28.5,E,,,160114,,,A
$PGRMZ,128,m,3
$GPRMC,124939.00,A,5026.44,N,31-28.5,E,,,160114,,,A
$PGRMZ,128,m,3
$GPRMC,124940.00,A,5026.44,N,31-28.5,E,,,160114,,,A
$PGRMZ,129,m,3
$GPRMC,124941.00,A,5026.44,N,31-28.49,E,,,160114,,,A
$PGRMZ,129,m,3
$GPRMC,125159.00,A,5026.44,N,31-28.54,E,,,160114,,,A
$PGRMZ,128,m,3
$GPRMC,125200.00,A,5026.44,N,31-28.54,E,,,160114,,,A
$PGRMZ,129,m,3
$GPRMC,125201.00,A,5026.43,N,31-28.54,E,,,160114,,,A
$PGRMZ,129,m,3
$GPRMC,125202.00,A,5026.43,N,31-28.54,E,,,160114,,,A
$PGRMZ,129,m,3
$GPRMC,125205.00,A,5026.43,N,31-28.54,E,,,160114,,,A
$PGRMZ,129,m,3
$GPRMC,125207.00,A,5026.43,N,31-28.54,E,,,160114,,,A
$PGRMZ,129,m,3
$GPRMC,125208.00,A,5026.43,N,31-28.54,E,,,160114,,,A
$PGRMZ,129,m,3
$GPRMC,125209.00,A,5026.43,N,31-28.54,E,,,160114,,,A
$PGRMZ,129,m,3
$GPRMC,125210.00,A,5026.44,N,31-28.54,E,,,160114,,,A
$PGRMZ,129,m,3
$GPRMC,125211.00,A,5026.44,N,31-28.54,E,,,160114,,,A
$PGRMZ,129,m,3
$GPRMC,125212.00,A,5026.44,N,31-28.54,E,,,160114,,,A
$PGRMZ,129,m,3
$GPRMC,125213.00,A,5026.44,N,31-28.54,E,,,160114,,,A
$PGRMZ,129,m,3
$GPRMC,125214.00,A,5026.44,N,31-28.54,E,,,160114,,,A
$PGRMZ,129,m,3
$GPRMC,125215.00,A,5026.44,N,31-28.53,E,,,160114,,,A
$PGRMZ,129,m,3
$GPRMC,125216.00,A,5026.44,N,31-28.53,E,,,160114,,,A
$PGRMZ,129,m,3
$GPRMC,125217.00,A,5026.44,N,31-28.53,E,,,160114,,,A
$PGRMZ,129,m,3
$GPRMC,125218.00,A,5026.44,N,31-28.53,E,,,160114,,,A
$PGRMZ,129,m,3
$GPRMC,125219.00,A,5026.45,N,31-28.53,E,,,160114,,,A
$PGRMZ,129,m,3
$GPRMC,125220.00,A,5026.45,N,31-28.53,E,,,160114,,,A
$PGRMZ,129,m,3
$GPRMC,125222.00,A,5026.45,N,31-28.53,E,,,160114,,,A
$PGRMZ,129,m,3
$GPRMC,125223.00,A,5026.45,N,31-28.53,E,,,160114,,,A
$PGRMZ,129,m,3
$GPRMC,125224.00,A,5026.45,N,31-28.53,E,,,160114,,,A
$PGRMZ,129,m,3
$GPRMC,125227.00,A,5026.45,N,31-28.53,E,,,160114,,,A
$PGRMZ,129,m,3
$GPRMC,125323.00,A,5026.45,N,31-28.54,E,,,160114,,,A
$PGRMZ,129,m,3
$GPRMC,125324.00,A,5026.45,N,31-28.54,E,,,160114,,,A
$PGRMZ,129,m,3
$GPRMC,125325.00,A,5026.45,N,31-28.54,E,,,160114,,,A
$PGRMZ,129,m,3
$GPRMC,125326.00,A,5026.45,N,31-28.54,E,,,160114,,,A
$PGRMZ,129,m,3
$GPRMC,125328.00,A,5026.45,N,31-28.54,E,,,160114,,,A
$PGRMZ,129,m,3
$GPRMC,130349.00,A,5026.44,N,31-28.53,E,,,160114,,,A
$PGRMZ,101,m,3
$GPRMC,130353.00,A,5026.43,N,31-28.53,E,,,160114,,,A
$PGRMZ,100,m,3
$GPRMC,130354.00,A,5026.43,N,31-28.53,E,,,160114,,,A
$PGRMZ,99,m,3
$GPRMC,130355.00,A,5026.43,N,31-28.53,E,,,160114,,,A
$PGRMZ,99,m,3
$GPRMC,130356.00,A,5026.43,N,31-28.53,E,,,160114,,,A
$PGRMZ,98,m,3
$GPRMC,130357.00,A,5026.43,N,31-28.53,E,,,160114,,,A
$PGRMZ,97,m,3
$GPRMC,130358.00,A,5026.43,N,31-28.53,E,,,160114,,,A
$PGRMZ,96,m,3
$GPRMC,130359.00,A,5026.43,N,31-28.53,E,,,160114,,,A
$PGRMZ,96,m,3
$GPRMC,130400.00,A,5026.43,N,31-28.53,E,,,160114,,,A
$PGRMZ,95,m,3
$GPRMC,130401.00,A,5026.42,N,31-28.54,E,,,160114,,,A
$PGRMZ,106,m,3
$GPRMC,130402.00,A,5026.42,N,31-28.54,E,,,160114,,,A
$PGRMZ,112,m,3
$GPRMC,130403.00,A,5026.42,N,31-28.54,E,,,160114,,,A
$PGRMZ,115,m,3
$GPRMC,130404.00,A,5026.42,N,31-28.54,E,,,160114,,,A
$PGRMZ,117,m,3
$GPRMC,130405.00,A,5026.42,N,31-28.54,E,,,160114,,,A
$PGRMZ,118,m,3
$GPRMC,130406.00,A,5026.41,N,31-28.54,E,,,160114,,,A
$PGRMZ,119,m,3
$GPRMC,130407.00,A,5026.41,N,31-28.54,E,,,160114,,,A
$PGRMZ,120,m,3
