$GPRMC,113138.00,A,5026.59,N,3021.22,E,,,160114,,,A
$PGRMZ,195,m,3
$GPRMC,113207.00,A,5026.58,N,3021.23,E,,,160114,,,A
$PGRMZ,193,m,3
$GPRMC,113208.00,A,5026.58,N,3021.23,E,,,160114,,,A
$PGRMZ,192,m,3
$GPRMC,113209.00,A,5026.58,N,3021.22,E,,,160114,,,A
$PGRMZ,170,m,3
$GPRMC,113210.00,A,5026.58,N,3021.21,E,,,160114,,,A
$PGRMZ,161,m,3
$GPRMC,113211.00,A,5026.58,N,3021.21,E,,,160114,,,A
$PGRMZ,158,m,3
$GPRMC,113212.00,A,5026.58,N,3021.21,E,,,160114,,,A
$PGRMZ,156,m,3
$GPRMC,113213.00,A,5026.58,N,3021.21,E,,,160114,,,A
$PGRMZ,153,m,3
$GPRMC,113214.00,A,5026.58,N,3021.21,E,,,160114,,,A
$PGRMZ,152,m,3
$GPRMC,113216.00,A,5026.57,N,3021.21,E,,,160114,,,A
$PGRMZ,151,m,3
$GPRMC,113217.00,A,5026.57,N,3021.21,E,,,160114,,,A
$PGRMZ,150,m,3
$GPRMC,113218.00,A,5026.57,N,3021.21,E,,,160114,,,A
$PGRMZ,150,m,3
$GPRMC,113219.00,A,5026.57,N,3021.21,E,,,160114,,,A
$PGRMZ,149,m,3
$GPRMC,113220.00,A,5026.57,N,3021.21,E,,,160114,,,A
$PGRMZ,148,m,3
$GPRMC,113221.00,A,5026.57,N,3021.21,E,,,160114,,,A
$PGRMZ,147,m,3
$GPRMC,113222.00,A,5026.57,N,3021.21,E,,,160114,,,A
$PGRMZ,147,m,3
$GPRMC,113223.00,A,5026.57,N,3021.21,E,,,160114,,,A
$PGRMZ,146,m,3
$GPRMC,113224.00,A,5026.57,N,3021.22,E,,,160114,,,A
$PGRMZ,146,m,3
$GPRMC,113225.00,A,5026.57,N,3021.22,E,,,160114,,,A
$PGRMZ,146,m,3
$GPRMC,113226.00,A,5026.57,N,3021.22,E,,,160114,,,A
$PGRMZ,145,m,3
$GPRMC,113227.00,A,5026.57,N,3021.22,E,,,160114,,,A
$PGRMZ,145,m,3
$GPRMC,113228.00,A,5026.57,N,3021.22,E,,,160114,,,A
$PGRMZ,145,m,3
$GPRMC,113229.00,A,5026.57,N,3021.22,E,,,160114,,,A
$PGRMZ,146,m,3
$GPRMC,113230.00,A,5026.57,N,3021.22,E,,,160114,,,A
$PGRMZ,146,m,3
$GPRMC,113231.00,A,5026.56,N,3021.22,E,,,160114,,,A
$PGRMZ,146,m,3
$GPRMC,113234.00,A,5026.56,N,3021.22,E,,,160114,,,A
$PGRMZ,146,m,3
$GPRMC,113235.00,A,5026.56,N,3021.22,E,,,160114,,,A
$PGRMZ,146,m,3
$GPRMC,113236.00,A,5026.56,N,3021.22,E,,,160114,,,A
$PGRMZ,146,m,3
$GPRMC,113237.00,A,5026.56,N,3021.22,E,,,160114,,,A
$PGRMZ,146,m,3
$GPRMC,113238.00,A,5026.56,N,3021.22,E,,,160114,,,A
$PGRMZ,146,m,3
$GPRMC,113239.00,A,5026.56,N,3021.22,E,,,160114,,,A
$PGRMZ,146,m,3
$GPRMC,113240.00,A,5026.56,N,3021.22,E,,,160114,,,A
$PGRMZ,146,m,3
$GPRMC,113241.00,A,5026.56,N,3021.22,E,,,160114,,,A
$PGRMZ,146,m,3
$GPRMC,113242.00,A,5026.55,N,3021.22,E,,,160114,,,A
$PGRMZ,146,m,3
$GPRMC,113243.00,A,5026.55,N,3021.23,E,,,160114,,,A
$PGRMZ,146,m,3
$GPRMC,113244.00,A,5026.55,N,3021.23,E,,,160114,,,A
$PGRMZ,146,m,3
$GPRMC,113245.00,A,5026.55,N,3021.23,E,,,160114,,,A
$PGRMZ,146,m,3
$GPRMC,113246.00,A,5026.55,N,3021.23,E,,,160114,,,A
$PGRMZ,145,m,3
$GPRMC,113247.00,A,5026.55,N,3021.23,E,,,160114,,,A
$PGRMZ,145,m,3
$GPRMC,113248.00,A,5026.55,N,3021.23,E,,,160114,,,A
$PGRMZ,145,m,3
$GPRMC,113249.00,A,5026.55,N,3021.23,E,,,160114,,,A
$PGRMZ,145,m,3
$GPRMC,113250.00,A,5026.55,N,3021.23,E,,,160114,,,A
$PGRMZ,145,m,3
$GPRMC,113251.00,A,5026.55,N,3021.23,E,,,160114,,,A
$PGRMZ,145,m,3
$GPRMC,113252.00,A,5026.55,N,3021.23,E,,,160114,,,A
$PGRMZ,145,m,3
$GPRMC,113253.00,A,5026.55,N,3021.23,E,,,160114,,,A
$PGRMZ,145,m,3
$GPRMC,113254.00,A,5026.55,N,3021.23,E,,,160114,,,A
$PGRMZ,145,m,3
$GPRMC,113255.00,A,5026.55,N,3021.23,E,,,160114,,,A
$PGRMZ,145,m,3
$GPRMC,113256.00,A,5026.55,N,3021.24,E,,,160114,,,A
$PGRMZ,145,m,3
$GPRMC,113257.00,A,5026.55,N,3021.24,E,,,160114,,,A
$PGRMZ,145,m,3
$GPRMC,113258.00,A,5026.55,N,3021.24,E,,,160114,,,A
$PGRMZ,145,m,3
$GPRMC,113259.00,A,5026.55,N,3021.24,E,,,160114,,,A
$PGRMZ,145,m,3
$GPRMC,113300.00,A,5026.55,N,3021.24,E,,,160114,,,A
$PGRMZ,145,m,3
$GPRMC,113301.00,A,5026.55,N,3021.24,E,,,160114,,,A
$PGRMZ,145,m,3
$GPRMC,113302.00,A,5026.55,N,3021.24,E,,,160114,,,A
$PGRMZ,145,m,3
$GPRMC,113303.00,A,5026.55,N,3021.24,E,,,160114,,,A
$PGRMZ,146,m,3
$GPRMC,113304.00,A,5026.55,N,3021.24,E,,,160114,,,A
$PGRMZ,146,m,3
$GPRMC,113305.00,A,5026.55,N,3021.24,E,,,160114,,,A
$PGRMZ,146,m,3
$GPRMC,113306.00,A,5026.55,N,3021.25,E,,,160114,,,A
$PGRMZ,146,m,3
$GPRMC,113307.00,A,5026.55,N,3021.25,E,,,160114,,,A
$PGRMZ,146,m,3
$GPRMC,113308.00,A,5026.55,N,3021.25,E,,,160114,,,A
$PGRMZ,146,m,3
$GPRMC,113309.00,A,5026.55,N,3021.25,E,,,160114,,,A
$PGRMZ,146,m,3
$GPRMC,113310.00,A,5026.55,N,3021.25,E,,,160114,,,A
$PGRMZ,146,m,3
$GPRMC,113311.00,A,5026.55,N,3021.25,E,,,160114,,,A
$PGRMZ,146,m,3
$GPRMC,113312.00,A,5026.55,N,3021.25,E,,,160114,,,A
$PGRMZ,146,m,3
$GPRMC,113313.00,A,5026.55,N,3021.26,E,,,160114,,,A
$PGRMZ,146,m,3
$GPRMC,113314.00,A,5026.55,N,3021.26,E,,,160114,,,A
$PGRMZ,146,m,3
$GPRMC,113315.00,A,5026.55,N,3021.26,E,,,160114,,,A
$PGRMZ,146,m,3
$GPRMC,113316.00,A,5026.55,N,3021.26,E,,,160114,,,A
$PGRMZ,147,m,3
$GPRMC,113317.00,A,5026.55,N,3021.26,E,,,160114,,,A
$PGRMZ,147,m,3
$GPRMC,113318.00,A,5026.55,N,3021.26,E,,,160114,,,A
$PGRMZ,147,m,3
$GPRMC,113319.00,A,5026.55,N,3021.26,E,,,160114,,,A
$PGRMZ,147,m,3
$GPRMC,113320.00,A,5026.55,N,3021.27,E,,,160114,,,A
$PGRMZ,147,m,3
$GPRMC,113321.00,A,5026.55,N,3021.27,E,,,160114,,,A
$PGRMZ,147,m,3
$GPRMC,113322.00,A,5026.55,N,3021.27,E,,,160114,,,A
$PGRMZ,147,m,3
$GPRMC,113323.00,A,5026.56,N,3021.27,E,,,160114,,,A
$PGRMZ,147,m,3
$GPRMC,113324.00,A,5026.56,N,3021.27,E,,,160114,,,A
$PGRMZ,147,m,3
$GPRMC,113325.00,A,5026.56,N,3021.27,E,,,160114,,,A
$PGRMZ,147,m,3
$GPRMC,113326.00,A,5026.56,N,3021.27,E,,,160114,,,A
$PGRMZ,147,m,3
$GPRMC,113327.00,A,5026.56,N,3021.27,E,,,160114,,,A
$PGRMZ,147,m,3
$GPRMC,113328.00,A,5026.56,N,3021.27,E,,,160114,,,A
$PGRMZ,147,m,3
$GPRMC,113329.00,A,5026.56,N,3021.28,E,,,160114,,,A
$PGRMZ,147,m,3
$GPRMC,113330.00,A,5026.56,N,3021.28,E,,,160114,,,A
$PGRMZ,147,m,3
$GPRMC,113331.00,A,5026.56,N,3021.28,E,,,160114,,,A
$PGRMZ,148,m,3
$GPRMC,113332.00,A,5026.56,N,3021.28,E,,,160114,,,A
$PGRMZ,148,m,3
$GPRMC,113333.00,A,5026.56,N,3021.28,E,,,160114,,,A
$PGRMZ,148,m,3
$GPRMC,113334.00,A,5026.56,N,3021.28,E,,,160114,,,A
$PGRMZ,148,m,3
$GPRMC,113335.00,A,5026.56,N,3021.28,E,,,160114,,,A
$PGRMZ,148,m,3
$GPRMC,113336.00,A,5026.56,N,3021.28,E,,,160114,,,A
$PGRMZ,148,m,3
$GPRMC,113337.00,A,5026.56,N,3021.29,E,,,160114,,,A
$PGRMZ,148,m,3
$GPRMC,113338.00,A,5026.56,N,3021.29,E,,,160114,,,A
$PGRMZ,148,m,3
$GPRMC,113339.00,A,5026.56,N,3021.29,E,,,160114,,,A
$PGRMZ,148,m,3
$GPRMC,113340.00,A,5026.56,N,3021.29,E,,,160114,,,A
$PGRMZ,148,m,3
$GPRMC,113341.00,A,5026.56,N,3021.29,E,,,160114,,,A
$PGRMZ,148,m,3
$GPRMC,113342.00,A,5026.56,N,3021.29,E,,,160114,,,A
$PGRMZ,148,m,3
$GPRMC,113343.00,A,5026.56,N,3021.3,E,,,160114,,,A
$PGRMZ,148,m,3
$GPRMC,113344.00,A,5026.56,N,3021.3,E,,,160114,,,A
$PGRMZ,148,m,3
$GPRMC,113345.00,A,5026.56,N,3021.3,E,,,160114,,,A
$PGRMZ,148,m,3
$GPRMC,113346.00,A,5026.56,N,3021.3,E,,,160114,,,A
$PGRMZ,148,m,3
$GPRMC,113347.00,A,5026.56,N,3021.3,E,,,160114,,,A
$PGRMZ,148,m,3
$GPRMC,113348.00,A,5026.56,N,3021.3,E,,,160114,,,A
$PGRMZ,148,m,3
$GPRMC,113349.00,A,5026.56,N,3021.3,E,,,160114,,,A
$PGRMZ,148,m,3
$GPRMC,113350.00,A,5026.56,N,3021.31,E,,,160114,,,A
$PGRMZ,149,m,3
$GPRMC,113351.00,A,5026.56,N,3021.31,E,,,160114,,,A
$PGRMZ,149,m,3
$GPRMC,113352.00,A,5026.56,N,3021.31,E,,,160114,,,A
$PGRMZ,149,m,3
$GPRMC,113353.00,A,5026.56,N,3021.31,E,,,160114,,,A
$PGRMZ,149,m,3
$GPRMC,113354.00,A,5026.56,N,3021.31,E,,,160114,,,A
$PGRMZ,149,m,3
$GPRMC,113355.00,A,5026.56,N,3021.31,E,,,160114,,,A
$PGRMZ,149,m,3
$GPRMC,113356.00,A,5026.56,N,3021.31,E,,,160114,,,A
$PGRMZ,149,m,3
$GPRMC,113357.00,A,5026.56,N,3021.31,E,,,160114,,,A
$PGRMZ,149,m,3
$GPRMC,113358.00,A,5026.56,N,3021.32,E,,,160114,,,A
$PGRMZ,149,m,3
$GPRMC,113359.00,A,5026.56,N,3021.32,E,,,160114,,,A
$PGRMZ,149,m,3
$GPRMC,113400.00,A,5026.56,N,3021.32,E,,,160114,,,A
$PGRMZ,149,m,3
$GPRMC,113401.00,A,5026.56,N,3021.32,E,,,160114,,,A
$PGRMZ,149,m,3
$GPRMC,113402.00,A,5026.56,N,3021.32,E,,,160114,,,A
$PGRMZ,149,m,3
$GPRMC,113403.00,A,5026.56,N,3021.32,E,,,160114,,,A
$PGRMZ,149,m,3
$GPRMC,113404.00,A,5026.56,N,3021.32,E,,,160114,,,A
$PGRMZ,149,m,3
$GPRMC,113405.00,A,5026.57,N,3021.32,E,,,160114,,,A
$PGRMZ,149,m,3
$GPRMC,113406.00,A,5026.56,N,3021.33,E,,,160114,,,A
$PGRMZ,149,m,3
$GPRMC,113407.00,A,5026.56,N,3021.33,E,,,160114,,,A
$PGRMZ,149,m,3
$GPRMC,113408.00,A,5026.56,N,3021.33,E,,,160114,,,A
$PGRMZ,149,m,3
$GPRMC,113409.00,A,5026.56,N,3021.33,E,,,160114,,,A
$PGRMZ,149,m,3
$GPRMC,113411.00,A,5026.56,N,3021.33,E,,,160114,,,A
$PGRMZ,149,m,3
$GPRMC,113412.00,A,5026.56,N,3021.33,E,,,160114,,,A
$PGRMZ,149,m,3
$GPRMC,113413.00,A,5026.56,N,3021.33,E,,,160114,,,A
$PGRMZ,149,m,3
$GPRMC,113414.00,A,5026.56,N,3021.34,E,,,160114,,,A
$PGRMZ,149,m,3
$GPRMC,113415.00,A,5026.56,N,3021.34,E,,,160114,,,A
$PGRMZ,150,m,3
$GPRMC,113416.00,A,5026.56,N,3021.34,E,,,160114,,,A
$PGRMZ,150,m,3
$GPRMC,113417.00,A,5026.56,N,3021.34,E,,,160114,,,A
$PGRMZ,150,m,3
$GPRMC,113418.00,A,5026.56,N,3021.35,E,,,160114,,,A
$PGRMZ,149,m,3
$GPRMC,113419.00,A,5026.56,N,3021.35,E,,,160114,,,A
$PGRMZ,149,m,3
$GPRMC,113420.00,A,5026.56,N,3021.35,E,,,160114,,,A
$PGRMZ,149,m,3
$GPRMC,113421.00,A,5026.56,N,3021.35,E,,,160114,,,A
$PGRMZ,148,m,3
$GPRMC,113422.00,A,5026.56,N,3021.35,E,,,160114,,,A
$PGRMZ,148,m,3
$GPRMC,113423.00,A,5026.56,N,3021.35,E,,,160114,,,A
$PGRMZ,148,m,3
$GPRMC,113424.00,A,5026.56,N,3021.35,E,,,160114,,,A
$PGRMZ,148,m,3
$GPRMC,113426.00,A,5026.57,N,3021.35,E,,,160114,,,A
$PGRMZ,148,m,3
$GPRMC,113427.00,A,5026.57,N,3021.35,E,,,160114,,,A
$PGRMZ,148,m,3
$GPRMC,113428.00,A,5026.57,N,3021.35,E,,,160114,,,A
$PGRMZ,148,m,3
$GPRMC,113429.00,A,5026.57,N,3021.35,E,,,160114,,,A
$PGRMZ,148,m,3
$GPRMC,113430.00,A,5026.57,N,3021.35,E,,,160114,,,A
$PGRMZ,147,m,3
$GPRMC,113431.00,A,5026.57,N,3021.36,E,,,160114,,,A
$PGRMZ,147,m,3
$GPRMC,113432.00,A,5026.57,N,3021.36,E,,,160114,,,A
$PGRMZ,147,m,3
$GPRMC,113433.00,A,5026.57,N,3021.36,E,,,160114,,,A
$PGRMZ,147,m,3
$GPRMC,113434.00,A,5026.57,N,3021.36,E,,,160114,,,A
$PGRMZ,147,m,3
$GPRMC,113435.00,A,5026.57,N,3021.36,E,,,160114,,,A
$PGRMZ,147,m,3
$GPRMC,113436.00,A,5026.57,N,3021.36,E,,,160114,,,A
$PGRMZ,147,m,3
$GPRMC,113437.00,A,5026.57,N,3021.36,E,,,160114,,,A
$PGRMZ,147,m,3
$GPRMC,113438.00,A,5026.57,N,3021.36,E,,,160114,,,A
$PGRMZ,147,m,3
$GPRMC,113439.00,A,5026.57,N,3021.36,E,,,160114,,,A
$PGRMZ,147,m,3
$GPRMC,113440.00,A,5026.57,N,3021.37,E,,,160114,,,A
$PGRMZ,148,m,3
$GPRMC,113441.00,A,5026.57,N,3021.37,E,,,160114,,,A
$PGRMZ,148,m,3
$GPRMC,113442.00,A,5026.57,N,3021.37,E,,,160114,,,A
$PGRMZ,148,m,3
$GPRMC,113443.00,A,5026.57,N,3021.37,E,,,160114,,,A
$PGRMZ,149,m,3
$GPRMC,113444.00,A,5026.57,N,3021.37,E,,,160114,,,A
$PGRMZ,149,m,3
$GPRMC,113445.00,A,5026.57,N,3021.37,E,,,160114,,,A
$PGRMZ,149,m,3
$GPRMC,113446.00,A,5026.57,N,3021.37,E,,,160114,,,A
$PGRMZ,150,m,3
$GPRMC,113447.00,A,5026.57,N,3021.38,E,,,160114,,,A
$PGRMZ,150,m,3
$GPRMC,113448.00,A,5026.57,N,3021.38,E,,,160114,,,A
$PGRMZ,150,m,3
$GPRMC,113449.00,A,5026.57,N,3021.38,E,,,160114,,,A
$PGRMZ,151,m,3
$GPRMC,113450.00,A,5026.57,N,3021.38,E,,,160114,,,A
$PGRMZ,151,m,3
$GPRMC,113451.00,A,5026.57,N,3021.38,E,,,160114,,,A
$PGRMZ,151,m,3
$GPRMC,113452.00,A,5026.57,N,3021.38,E,,,160114,,,A
$PGRMZ,151,m,3
$GPRMC,113453.00,A,5026.57,N,3021.38,E,,,160114,,,A
$PGRMZ,151,m,3
$GPRMC,113454.00,A,5026.57,N,3021.38,E,,,160114,,,A
$PGRMZ,152,m,3
$GPRMC,113455.00,A,5026.57,N,3021.38,E,,,160114,,,A
$PGRMZ,152,m,3
$GPRMC,113456.00,A,5026.57,N,3021.39,E,,,160114,,,A
$PGRMZ,152,m,3
$GPRMC,113457.00,A,5026.57,N,3021.39,E,,,160114,,,A
$PGRMZ,152,m,3
$GPRMC,113458.00,A,5026.55,N,3021.39,E,,,160114,,,A
$PGRMZ,144,m,3
$GPRMC,113459.00,A,5026.56,N,3021.39,E,,,160114,,,A
$PGRMZ,140,m,3
$GPRMC,113500.00,A,5026.56,N,3021.39,E,,,160114,,,A
$PGRMZ,140,m,3
$GPRMC,113501.00,A,5026.56,N,3021.39,E,,,160114,,,A
$PGRMZ,140,m,3
$GPRMC,113502.00,A,5026.56,N,3021.39,E,,,160114,,,A
$PGRMZ,140,m,3
$GPRMC,113504.00,A,5026.56,N,3021.39,E,,,160114,,,A
$PGRMZ,138,m,3
$GPRMC,113505.00,A,5026.56,N,3021.39,E,,,160114,,,A
$PGRMZ,137,m,3
$GPRMC,113506.00,A,5026.56,N,3021.39,E,,,160114,,,A
$PGRMZ,136,m,3
$GPRMC,113507.00,A,5026.56,N,3021.39,E,,,160114,,,A
$PGRMZ,136,m,3
$GPRMC,113508.00,A,5026.57,N,3021.39,E,,,160114,,,A
$PGRMZ,138,m,3
$GPRMC,113509.00,A,5026.57,N,3021.39,E,,,160114,,,A
$PGRMZ,139,m,3
$GPRMC,113510.00,A,5026.57,N,3021.39,E,,,160114,,,A
$PGRMZ,139,m,3
$GPRMC,113511.00,A,5026.57,N,3021.39,E,,,160114,,,A
$PGRMZ,140,m,3
$GPRMC,113512.00,A,5026.57,N,3021.39,E,,,160114,,,A
$PGRMZ,140,m,3
$GPRMC,113513.00,A,5026.57,N,3021.39,E,,,160114,,,A
$PGRMZ,140,m,3
$GPRMC,113514.00,A,5026.57,N,3021.39,E,,,160114,,,A
$PGRMZ,140,m,3
$GPRMC,113515.00,A,5026.57,N,3021.39,E,,,160114,,,A
$PGRMZ,140,m,3
$GPRMC,113516.00,A,5026.57,N,3021.39,E,,,160114,,,A
$PGRMZ,140,m,3
$GPRMC,113517.00,A,5026.57,N,3021.39,E,,,160114,,,A
$PGRMZ,140,m,3
$GPRMC,113519.00,A,5026.57,N,3021.39,E,,,160114,,,A
$PGRMZ,141,m,3
$GPRMC,113520.00,A,5026.58,N,3021.39,E,,,160114,,,A
$PGRMZ,142,m,3
$GPRMC,113521.00,A,5026.58,N,3021.39,E,,,160114,,,A
$PGRMZ,142,m,3
$GPRMC,113522.00,A,5026.58,N,3021.39,E,,,160114,,,A
$PGRMZ,142,m,3
$GPRMC,113524.00,A,5026.58,N,3021.4,E,,,160114,,,A
$PGRMZ,142,m,3
$GPRMC,113525.00,A,5026.58,N,3021.4,E,,,160114,,,A
$PGRMZ,142,m,3
$GPRMC,113527.00,A,5026.58,N,3021.4,E,,,160114,,,A
$PGRMZ,142,m,3
$GPRMC,113528.00,A,5026.58,N,3021.4,E,,,160114,,,A
$PGRMZ,142,m,3
$GPRMC,113529.00,A,5026.58,N,3021.4,E,,,160114,,,A
$PGRMZ,142,m,3
$GPRMC,113530.00,A,5026.58,N,3021.4,E,,,160114,,,A
$PGRMZ,142,m,3
$GPRMC,113531.00,A,5026.58,N,3021.4,E,,,160114,,,A
$PGRMZ,142,m,3
$GPRMC,113532.00,A,5026.58,N,3021.4,E,,,160114,,,A
$PGRMZ,142,m,3
$GPRMC,113533.00,A,5026.58,N,3021.4,E,,,160114,,,A
$PGRMZ,142,m,3
$GPRMC,113534.00,A,5026.59,N,3021.4,E,,,160114,,,A
$PGRMZ,142,m,3
$GPRMC,113535.00,A,5026.59,N,3021.4,E,,,160114,,,A
$PGRMZ,142,m,3
$GPRMC,113536.00,A,5026.59,N,3021.4,E,,,160114,,,A
$PGRMZ,142,m,3
$GPRMC,113537.00,A,5026.59,N,3021.4,E,,,160114,,,A
$PGRMZ,142,m,3
$GPRMC,113538.00,A,5026.59,N,3021.4,E,,,160114,,,A
$PGRMZ,142,m,3
$GPRMC,113539.00,A,5026.59,N,3021.41,E,,,160114,,,A
$PGRMZ,142,m,3
$GPRMC,113540.00,A,5026.59,N,3021.41,E,,,160114,,,A
$PGRMZ,142,m,3
$GPRMC,113541.00,A,5026.59,N,3021.41,E,,,160114,,,A
$PGRMZ,142,m,3
$GPRMC,113542.00,A,5026.59,N,3021.41,E,,,160114,,,A
$PGRMZ,142,m,3
$GPRMC,113543.00,A,5026.59,N,3021.41,E,,,160114,,,A
$PGRMZ,142,m,3
$GPRMC,113544.00,A,5026.59,N,3021.41,E,,,160114,,,A
$PGRMZ,141,m,3
$GPRMC,113545.00,A,5026.59,N,3021.41,E,,,160114,,,A
$PGRMZ,141,m,3
$GPRMC,113546.00,A,5026.59,N,3021.41,E,,,160114,,,A
$PGRMZ,141,m,3
$GPRMC,113547.00,A,5026.59,N,3021.41,E,,,160114,,,A
$PGRMZ,141,m,3
$GPRMC,113548.00,A,5026.59,N,3021.42,E,,,160114,,,A
$PGRMZ,141,m,3
$GPRMC,113549.00,A,5026.6,N,3021.42,E,,,160114,,,A
$PGRMZ,141,m,3
$GPRMC,113550.00,A,5026.6,N,3021.42,E,,,160114,,,A
$PGRMZ,141,m,3
$GPRMC,113551.00,A,5026.6,N,3021.42,E,,,160114,,,A
$PGRMZ,142,m,3
$GPRMC,113552.00,A,5026.6,N,3021.42,E,,,160114,,,A
$PGRMZ,142,m,3
$GPRMC,113553.00,A,5026.6,N,3021.42,E,,,160114,,,A
$PGRMZ,142,m,3
$GPRMC,113554.00,A,5026.6,N,3021.42,E,,,160114,,,A
$PGRMZ,142,m,3
$GPRMC,113555.00,A,5026.6,N,3021.42,E,,,160114,,,A
$PGRMZ,142,m,3
$GPRMC,113557.00,A,5026.6,N,3021.43,E,,,160114,,,A
$PGRMZ,142,m,3
$GPRMC,113558.00,A,5026.6,N,3021.43,E,,,160114,,,A
$PGRMZ,142,m,3
$GPRMC,113559.00,A,5026.6,N,3021.43,E,,,160114,,,A
$PGRMZ,142,m,3
$GPRMC,113600.00,A,5026.6,N,3021.43,E,,,160114,,,A
$PGRMZ,142,m,3
$GPRMC,113601.00,A,5026.6,N,3021.43,E,,,160114,,,A
$PGRMZ,142,m,3
$GPRMC,113602.00,A,5026.6,N,3021.43,E,,,160114,,,A
$PGRMZ,142,m,3
$GPRMC,113603.00,A,5026.6,N,3021.43,E,,,160114,,,A
$PGRMZ,142,m,3
$GPRMC,113604.00,A,5026.6,N,3021.43,E,,,160114,,,A
$PGRMZ,142,m,3
$GPRMC,113605.00,A,5026.6,N,3021.43,E,,,160114,,,A
$PGRMZ,142,m,3
$GPRMC,113606.00,A,5026.6,N,3021.43,E,,,160114,,,A
$PGRMZ,143,m,3
$GPRMC,113608.00,A,5026.6,N,3021.44,E,,,160114,,,A
$PGRMZ,143,m,3
$GPRMC,113609.00,A,5026.6,N,3021.44,E,,,160114,,,A
$PGRMZ,143,m,3
$GPRMC,113610.00,A,5026.6,N,3021.44,E,,,160114,,,A
$PGRMZ,143,m,3
$GPRMC,113611.00,A,5026.6,N,3021.44,E,,,160114,,,A
$PGRMZ,143,m,3
$GPRMC,113612.00,A,5026.6,N,3021.44,E,,,160114,,,A
$PGRMZ,143,m,3
$GPRMC,113613.00,A,5026.6,N,3021.44,E,,,160114,,,A
$PGRMZ,143,m,3
$GPRMC,113614.00,A,5026.6,N,3021.44,E,,,160114,,,A
$PGRMZ,144,m,3
$GPRMC,113615.00,A,5026.6,N,3021.44,E,,,160114,,,A
$PGRMZ,144,m,3
$GPRMC,113616.00,A,5026.6,N,3021.45,E,,,160114,,,A
$PGRMZ,144,m,3
$GPRMC,113617.00,A,5026.6,N,3021.45,E,,,160114,,,A
$PGRMZ,144,m,3
$GPRMC,113618.00,A,5026.6,N,3021.45,E,,,160114,,,A
$PGRMZ,144,m,3
$GPRMC,113619.00,A,5026.6,N,3021.45,E,,,160114,,,A
$PGRMZ,144,m,3
$GPRMC,113620.00,A,5026.61,N,3021.45,E,,,160114,,,A
$PGRMZ,144,m,3
$GPRMC,113621.00,A,5026.61,N,3021.45,E,,,160114,,,A
$PGRMZ,144,m,3
$GPRMC,113622.00,A,5026.61,N,3021.45,E,,,160114,,,A
$PGRMZ,145,m,3
$GPRMC,113623.00,A,5026.61,N,3021.45,E,,,160114,,,A
$PGRMZ,145,m,3
$GPRMC,113624.00,A,5026.61,N,3021.45,E,,,160114,,,A
$PGRMZ,145,m,3
$GPRMC,113625.00,A,5026.61,N,3021.45,E,,,160114,,,A
$PGRMZ,145,m,3
$GPRMC,113626.00,A,5026.61,N,3021.46,E,,,160114,,,A
$PGRMZ,145,m,3
$GPRMC,113627.00,A,5026.61,N,3021.46,E,,,160114,,,A
$PGRMZ,146,m,3
$GPRMC,113628.00,A,5026.61,N,3021.46,E,,,160114,,,A
$PGRMZ,146,m,3
$GPRMC,113629.00,A,5026.61,N,3021.46,E,,,160114,,,A
$PGRMZ,146,m,3
$GPRMC,113630.00,A,5026.61,N,3021.46,E,,,160114,,,A
$PGRMZ,146,m,3
$GPRMC,113631.00,A,5026.61,N,3021.46,E,,,160114,,,A
$PGRMZ,146,m,3
$GPRMC,113632.00,A,5026.61,N,3021.46,E,,,160114,,,A
$PGRMZ,145,m,3
$GPRMC,113633.00,A,5026.61,N,3021.46,E,,,160114,,,A
$PGRMZ,145,m,3
$GPRMC,113634.00,A,5026.61,N,3021.47,E,,,160114,,,A
$PGRMZ,145,m,3
$GPRMC,113635.00,A,5026.61,N,3021.47,E,,,160114,,,A
$PGRMZ,145,m,3
$GPRMC,113636.00,A,5026.61,N,3021.47,E,,,160114,,,A
$PGRMZ,146,m,3
$GPRMC,113637.00,A,5026.61,N,3021.47,E,,,160114,,,A
$PGRMZ,146,m,3
$GPRMC,113638.00,A,5026.61,N,3021.47,E,,,160114,,,A
$PGRMZ,146,m,3
$GPRMC,113639.00,A,5026.61,N,3021.47,E,,,160114,,,A
$PGRMZ,146,m,3
$GPRMC,113640.00,A,5026.61,N,3021.47,E,,,160114,,,A
$PGRMZ,146,m,3
$GPRMC,113641.00,A,5026.61,N,3021.48,E,,,160114,,,A
$PGRMZ,146,m,3
$GPRMC,113643.00,A,5026.61,N,3021.48,E,,,160114,,,A
$PGRMZ,146,m,3
$GPRMC,113644.00,A,5026.61,N,3021.48,E,,,160114,,,A
$PGRMZ,146,m,3
$GPRMC,113645.00,A,5026.61,N,3021.48,E,,,160114,,,A
$PGRMZ,147,m,3
$GPRMC,113646.00,A,5026.61,N,3021.48,E,,,160114,,,A
$PGRMZ,147,m,3
$GPRMC,113647.00,A,5026.61,N,3021.48,E,,,160114,,,A
$PGRMZ,147,m,3
$GPRMC,113648.00,A,5026.61,N,3021.48,E,,,160114,,,A
$PGRMZ,147,m,3
$GPRMC,113649.00,A,5026.61,N,3021.48,E,,,160114,,,A
$PGRMZ,147,m,3
$GPRMC,113650.00,A,5026.61,N,3021.49,E,,,160114,,,A
$PGRMZ,147,m,3
$GPRMC,113651.00,A,5026.62,N,3021.49,E,,,160114,,,A
$PGRMZ,147,m,3
$GPRMC,113652.00,A,5026.61,N,3021.49,E,,,160114,,,A
$PGRMZ,147,m,3
$GPRMC,113653.00,A,5026.61,N,3021.49,E,,,160114,,,A
$PGRMZ,147,m,3
$GPRMC,113654.00,A,5026.61,N,3021.49,E,,,160114,,,A
$PGRMZ,147,m,3
$GPRMC,113656.00,A,5026.61,N,3021.49,E,,,160114,,,A
$PGRMZ,147,m,3
$GPRMC,113657.00,A,5026.61,N,3021.49,E,,,160114,,,A
$PGRMZ,147,m,3
$GPRMC,113817.00,A,5026.59,N,3021.56,E,,,160114,,,A
$PGRMZ,121,m,3
$GPRMC,113818.00,A,5026.59,N,3021.56,E,,,160114,,,A
$PGRMZ,129,m,3
$GPRMC,113819.00,A,5026.59,N,3021.56,E,,,160114,,,A
$PGRMZ,128,m,3
$GPRMC,113834.00,A,5026.59,N,3021.55,E,,,160114,,,A
$PGRMZ,141,m,3
$GPRMC,113835.00,A,5026.59,N,3021.55,E,,,160114,,,A
$PGRMZ,143,m,3
$GPRMC,113836.00,A,5026.6,N,3021.55,E,,,160114,,,A
$PGRMZ,144,m,3
$GPRMC,114006.00,A,5026.6,N,3021.55,E,,,160114,,,A
$PGRMZ,149,m,3
$GPRMC,114007.00,A,5026.6,N,3021.55,E,,,160114,,,A
$PGRMZ,149,m,3
$GPRMC,114008.00,A,5026.6,N,3021.55,E,,,160114,,,A
$PGRMZ,149,m,3
$GPRMC,114009.00,A,5026.6,N,3021.55,E,,,160114,,,A
$PGRMZ,149,m,3
$GPRMC,114013.00,A,5026.6,N,3021.54,E,,,160114,,,A
$PGRMZ,149,m,3
$GPRMC,114018.00,A,5026.6,N,3021.54,E,,,160114,,,A
$PGRMZ,149,m,3
$GPRMC,114019.00,A,5026.6,N,3021.54,E,,,160114,,,A
$PGRMZ,149,m,3
$GPRMC,114020.00,A,5026.61,N,3021.54,E,,,160114,,,A
$PGRMZ,149,m,3
$GPRMC,114021.00,A,5026.61,N,3021.54,E,,,160114,,,A
$PGRMZ,149,m,3
$GPRMC,114022.00,A,5026.61,N,3021.54,E,,,160114,,,A
$PGRMZ,149,m,3
$GPRMC,114023.00,A,5026.61,N,3021.54,E,,,160114,,,A
$PGRMZ,149,m,3
$GPRMC,114024.00,A,5026.61,N,3021.54,E,,,160114,,,A
$PGRMZ,149,m,3
$GPRMC,114025.00,A,5026.62,N,3021.54,E,,,160114,,,A
$PGRMZ,149,m,3
$GPRMC,114026.00,A,5026.62,N,3021.54,E,,,160114,,,A
$PGRMZ,149,m,3
$GPRMC,114027.00,A,5026.63,N,3021.54,E,,,160114,,,A
$PGRMZ,149,m,3
$GPRMC,114028.00,A,5026.63,N,3021.54,E,,,160114,,,A
$PGRMZ,149,m,3
$GPRMC,114029.00,A,5026.63,N,3021.54,E,,,160114,,,A
$PGRMZ,148,m,3
$GPRMC,114030.00,A,5026.64,N,3021.54,E,,,160114,,,A
$PGRMZ,149,m,3
$GPRMC,114031.00,A,5026.64,N,3021.54,E,,,160114,,,A
$PGRMZ,148,m,3
$GPRMC,114032.00,A,5026.65,N,3021.54,E,,,160114,,,A
$PGRMZ,148,m,3
$GPRMC,114033.00,A,5026.66,N,3021.54,E,,,160114,,,A
$PGRMZ,148,m,3
$GPRMC,114034.00,A,5026.66,N,3021.53,E,,,160114,,,A
$PGRMZ,148,m,3
$GPRMC,114035.00,A,5026.67,N,3021.53,E,,,160114,,,A
$PGRMZ,148,m,3
$GPRMC,114036.00,A,5026.67,N,3021.53,E,,,160114,,,A
$PGRMZ,148,m,3
$GPRMC,114037.00,A,5026.68,N,3021.53,E,,,160114,,,A
$PGRMZ,148,m,3
$GPRMC,114038.00,A,5026.69,N,3021.53,E,,,160114,,,A
$PGRMZ,148,m,3
$GPRMC,114039.00,A,5026.69,N,3021.53,E,,,160114,,,A
$PGRMZ,148,m,3
$GPRMC,114040.00,A,5026.7,N,3021.53,E,,,160114,,,A
$PGRMZ,148,m,3
$GPRMC,114041.00,A,5026.71,N,3021.53,E,,,160114,,,A
$PGRMZ,148,m,3
$GPRMC,114042.00,A,5026.72,N,3021.52,E,,,160114,,,A
$PGRMZ,149,m,3
$GPRMC,114043.00,A,5026.72,N,3021.52,E,,,160114,,,A
$PGRMZ,149,m,3
$GPRMC,114044.00,A,5026.73,N,3021.52,E,,,160114,,,A
$PGRMZ,149,m,3
$GPRMC,114045.00,A,5026.74,N,3021.52,E,,,160114,,,A
$PGRMZ,149,m,3
$GPRMC,114046.00,A,5026.75,N,3021.52,E,,,160114,,,A
$PGRMZ,149,m,3
$GPRMC,114047.00,A,5026.75,N,3021.52,E,,,160114,,,A
$PGRMZ,149,m,3
$GPRMC,114048.00,A,5026.76,N,3021.52,E,,,160114,,,A
$PGRMZ,149,m,3
$GPRMC,114049.00,A,5026.77,N,3021.52,E,,,160114,,,A
$PGRMZ,150,m,3
$GPRMC,114050.00,A,5026.77,N,3021.52,E,,,160114,,,A
$PGRMZ,150,m,3
$GPRMC,114051.00,A,5026.78,N,3021.51,E,,,160114,,,A
$PGRMZ,150,m,3
$GPRMC,114052.00,A,5026.79,N,3021.51,E,,,160114,,,A
$PGRMZ,150,m,3
$GPRMC,114053.00,A,5026.8,N,3021.51,E,,,160114,,,A
$PGRMZ,150,m,3
$GPRMC,114054.00,A,5026.8,N,3021.51,E,,,160114,,,A
$PGRMZ,150,m,3
$GPRMC,114055.00,A,5026.81,N,3021.51,E,,,160114,,,A
$PGRMZ,150,m,3
$GPRMC,114056.00,A,5026.81,N,3021.51,E,,,160114,,,A
$PGRMZ,150,m,3
$GPRMC,114057.00,A,5026.82,N,3021.51,E,,,160114,,,A
$PGRMZ,150,m,3
$GPRMC,114058.00,A,5026.83,N,3021.51,E,,,160114,,,A
$PGRMZ,150,m,3
$GPRMC,114059.00,A,5026.84,N,3021.51,E,,,160114,,,A
$PGRMZ,150,m,3
$GPRMC,114100.00,A,5026.84,N,3021.5,E,,,160114,,,A
$PGRMZ,150,m,3
$GPRMC,114101.00,A,5026.85,N,3021.5,E,,,160114,,,A
$PGRMZ,150,m,3
$GPRMC,114102.00,A,5026.86,N,3021.5,E,,,160114,,,A
$PGRMZ,150,m,3
$GPRMC,114103.00,A,5026.86,N,3021.5,E,,,160114,,,A
$PGRMZ,150,m,3
$GPRMC,114104.00,A,5026.87,N,3021.5,E,,,160114,,,A
$PGRMZ,150,m,3
$GPRMC,114105.00,A,5026.88,N,3021.5,E,,,160114,,,A
$PGRMZ,150,m,3
$GPRMC,114106.00,A,5026.89,N,3021.5,E,,,160114,,,A
$PGRMZ,150,m,3
$GPRMC,114107.00,A,5026.89,N,3021.5,E,,,160114,,,A
$PGRMZ,149,m,3
$GPRMC,114108.00,A,5026.9,N,3021.49,E,,,160114,,,A
$PGRMZ,149,m,3
$GPRMC,114109.00,A,5026.91,N,3021.49,E,,,160114,,,A
$PGRMZ,149,m,3
$GPRMC,114110.00,A,5026.92,N,3021.49,E,,,160114,,,A
$PGRMZ,149,m,3
$GPRMC,114111.00,A,5026.92,N,3021.49,E,,,160114,,,A
$PGRMZ,149,m,3
$GPRMC,114112.00,A,5026.93,N,3021.49,E,,,160114,,,A
$PGRMZ,149,m,3
$GPRMC,114113.00,A,5026.94,N,3021.49,E,,,160114,,,A
$PGRMZ,149,m,3
$GPRMC,114114.00,A,5026.95,N,3021.49,E,,,160114,,,A
$PGRMZ,149,m,3
$GPRMC,114115.00,A,5026.96,N,3021.49,E,,,160114,,,A
$PGRMZ,149,m,3
$GPRMC,114116.00,A,5026.97,N,3021.49,E,,,160114,,,A
$PGRMZ,148,m,3
$GPRMC,114117.00,A,5026.97,N,3021.48,E,,,160114,,,A
$PGRMZ,148,m,3
$GPRMC,114118.00,A,5026.98,N,3021.48,E,,,160114,,,A
$PGRMZ,148,m,3
$GPRMC,114119.00,A,5026.99,N,3021.48,E,,,160114,,,A
$PGRMZ,148,m,3
$GPRMC,114120.00,A,5027,N,3021.48,E,,,160114,,,A
$PGRMZ,148,m,3
$GPRMC,114121.00,A,5027.01,N,3021.48,E,,,160114,,,A
$PGRMZ,148,m,3
$GPRMC,114122.00,A,5027.02,N,3021.48,E,,,160114,,,A
$PGRMZ,148,m,3
$GPRMC,114123.00,A,5027.03,N,3021.48,E,,,160114,,,A
$PGRMZ,148,m,3
$GPRMC,114124.00,A,5027.03,N,3021.48,E,,,160114,,,A
$PGRMZ,148,m,3
$GPRMC,114125.00,A,5027.04,N,3021.48,E,,,160114,,,A
$PGRMZ,148,m,3
$GPRMC,114126.00,A,5027.05,N,3021.48,E,,,160114,,,A
$PGRMZ,148,m,3
$GPRMC,114127.00,A,5027.06,N,3021.48,E,,,160114,,,A
$PGRMZ,149,m,3
$GPRMC,114128.00,A,5027.07,N,3021.48,E,,,160114,,,A
$PGRMZ,149,m,3
$GPRMC,114129.00,A,5027.08,N,3021.48,E,,,160114,,,A
$PGRMZ,149,m,3
$GPRMC,114130.00,A,5027.08,N,3021.48,E,,,160114,,,A
$PGRMZ,149,m,3
$GPRMC,114131.00,A,5027.09,N,3021.48,E,,,160114,,,A
$PGRMZ,149,m,3
$GPRMC,114132.00,A,5027.1,N,3021.48,E,,,160114,,,A
$PGRMZ,149,m,3
$GPRMC,114133.00,A,5027.1,N,3021.48,E,,,160114,,,A
$PGRMZ,149,m,3
$GPRMC,114134.00,A,5027.11,N,3021.48,E,,,160114,,,A
$PGRMZ,149,m,3
$GPRMC,114135.00,A,5027.11,N,3021.48,E,,,160114,,,A
$PGRMZ,149,m,3
$GPRMC,114136.00,A,5027.11,N,3021.48,E,,,160114,,,A
$PGRMZ,149,m,3
$GPRMC,114137.00,A,5027.12,N,3021.48,E,,,160114,,,A
$PGRMZ,149,m,3
$GPRMC,114138.00,A,5027.12,N,3021.48,E,,,160114,,,A
$PGRMZ,149,m,3
$GPRMC,114139.00,A,5027.12,N,3021.48,E,,,160114,,,A
$PGRMZ,148,m,3
$GPRMC,114148.00,A,5027.12,N,3021.48,E,,,160114,,,A
$PGRMZ,148,m,3
$GPRMC,114154.00,A,5027.12,N,3021.47,E,,,160114,,,A
$PGRMZ,149,m,3
$GPRMC,114155.00,A,5027.12,N,3021.47,E,,,160114,,,A
$PGRMZ,149,m,3
$GPRMC,114156.00,A,5027.12,N,3021.47,E,,,160114,,,A
$PGRMZ,149,m,3
$GPRMC,114157.00,A,5027.12,N,3021.48,E,,,160114,,,A
$PGRMZ,149,m,3
$GPRMC,114158.00,A,5027.12,N,3021.47,E,,,160114,,,A
$PGRMZ,149,m,3
$GPRMC,114159.00,A,5027.12,N,3021.47,E,,,160114,,,A
$PGRMZ,149,m,3
$GPRMC,114202.00,A,5027.13,N,3021.47,E,,,160114,,,A
$PGRMZ,149,m,3
$GPRMC,114203.00,A,5027.13,N,3021.47,E,,,160114,,,A
$PGRMZ,149,m,3
$GPRMC,114204.00,A,5027.13,N,3021.47,E,,,160114,,,A
$PGRMZ,149,m,3
$GPRMC,114205.00,A,5027.13,N,3021.47,E,,,160114,,,A
$PGRMZ,149,m,3
$GPRMC,114206.00,A,5027.13,N,3021.47,E,,,160114,,,A
$PGRMZ,149,m,3
$GPRMC,114207.00,A,5027.13,N,3021.47,E,,,160114,,,A
$PGRMZ,149,m,3
$GPRMC,114208.00,A,5027.14,N,3021.47,E,,,160114,,,A
$PGRMZ,149,m,3
$GPRMC,114209.00,A,5027.14,N,3021.47,E,,,160114,,,A
$PGRMZ,150,m,3
$GPRMC,114210.00,A,5027.14,N,3021.47,E,,,160114,,,A
$PGRMZ,150,m,3
$GPRMC,114211.00,A,5027.14,N,3021.47,E,,,160114,,,A
$PGRMZ,150,m,3
$GPRMC,114212.00,A,5027.15,N,3021.47,E,,,160114,,,A
$PGRMZ,150,m,3
$GPRMC,114213.00,A,5027.15,N,3021.47,E,,,160114,,,A
$PGRMZ,150,m,3
$GPRMC,114214.00,A,5027.15,N,3021.47,E,,,160114,,,A
$PGRMZ,150,m,3
$GPRMC,114215.00,A,5027.15,N,3021.47,E,,,160114,,,A
$PGRMZ,150,m,3
$GPRMC,114216.00,A,5027.15,N,3021.47,E,,,160114,,,A
$PGRMZ,151,m,3
$GPRMC,114217.00,A,5027.16,N,3021.47,E,,,160114,,,A
$PGRMZ,152,m,3
$GPRMC,114218.00,A,5027.16,N,3021.47,E,,,160114,,,A
$PGRMZ,152,m,3
$GPRMC,114219.00,A,5027.16,N,3021.47,E,,,160114,,,A
$PGRMZ,152,m,3
$GPRMC,114220.00,A,5027.16,N,3021.47,E,,,160114,,,A
$PGRMZ,153,m,3
$GPRMC,114221.00,A,5027.17,N,3021.47,E,,,160114,,,A
$PGRMZ,154,m,3
$GPRMC,114222.00,A,5027.17,N,3021.47,E,,,160114,,,A
$PGRMZ,154,m,3
$GPRMC,114223.00,A,5027.17,N,3021.47,E,,,160114,,,A
$PGRMZ,154,m,3
$GPRMC,114224.00,A,5027.18,N,3021.47,E,,,160114,,,A
$PGRMZ,155,m,3
$GPRMC,114225.00,A,5027.18,N,3021.47,E,,,160114,,,A
$PGRMZ,155,m,3
$GPRMC,114226.00,A,5027.19,N,3021.47,E,,,160114,,,A
$PGRMZ,155,m,3
$GPRMC,114227.00,A,5027.19,N,3021.47,E,,,160114,,,A
$PGRMZ,155,m,3
$GPRMC,114228.00,A,5027.2,N,3021.47,E,,,160114,,,A
$PGRMZ,156,m,3
$GPRMC,114229.00,A,5027.2,N,3021.47,E,,,160114,,,A
$PGRMZ,156,m,3
$GPRMC,114230.00,A,5027.2,N,3021.47,E,,,160114,,,A
$PGRMZ,156,m,3
$GPRMC,114231.00,A,5027.21,N,3021.47,E,,,160114,,,A
$PGRMZ,157,m,3
$GPRMC,114232.00,A,5027.21,N,3021.48,E,,,160114,,,A
$PGRMZ,157,m,3
$GPRMC,114233.00,A,5027.22,N,3021.48,E,,,160114,,,A
$PGRMZ,158,m,3
$GPRMC,114234.00,A,5027.22,N,3021.49,E,,,160114,,,A
$PGRMZ,158,m,3
$GPRMC,114235.00,A,5027.23,N,3021.49,E,,,160114,,,A
$PGRMZ,158,m,3
$GPRMC,114236.00,A,5027.23,N,3021.5,E,,,160114,,,A
$PGRMZ,158,m,3
$GPRMC,114237.00,A,5027.23,N,3021.51,E,,,160114,,,A
$PGRMZ,159,m,3
$GPRMC,114238.00,A,5027.23,N,3021.52,E,,,160114,,,A
$PGRMZ,159,m,3
$GPRMC,114239.00,A,5027.24,N,3021.53,E,,,160114,,,A
$PGRMZ,159,m,3
$GPRMC,114240.00,A,5027.24,N,3021.53,E,,,160114,,,A
$PGRMZ,160,m,3
$GPRMC,114241.00,A,5027.24,N,3021.54,E,,,160114,,,A
$PGRMZ,160,m,3
$GPRMC,114242.00,A,5027.25,N,3021.54,E,,,160114,,,A
$PGRMZ,160,m,3
$GPRMC,114243.00,A,5027.25,N,3021.55,E,,,160114,,,A
$PGRMZ,160,m,3
$GPRMC,114244.00,A,5027.26,N,3021.55,E,,,160114,,,A
$PGRMZ,160,m,3
$GPRMC,114245.00,A,5027.27,N,3021.55,E,,,160114,,,A
$PGRMZ,160,m,3
$GPRMC,114246.00,A,5027.27,N,3021.55,E,,,160114,,,A
$PGRMZ,161,m,3
$GPRMC,114247.00,A,5027.28,N,3021.55,E,,,160114,,,A
$PGRMZ,161,m,3
$GPRMC,114248.00,A,5027.28,N,3021.55,E,,,160114,,,A
$PGRMZ,162,m,3
$GPRMC,114249.00,A,5027.29,N,3021.55,E,,,160114,,,A
$PGRMZ,162,m,3
$GPRMC,114250.00,A,5027.29,N,3021.55,E,,,160114,,,A
$PGRMZ,162,m,3
$GPRMC,114251.00,A,5027.3,N,3021.55,E,,,160114,,,A
$PGRMZ,163,m,3
$GPRMC,114252.00,A,5027.3,N,3021.55,E,,,160114,,,A
$PGRMZ,163,m,3
$GPRMC,114253.00,A,5027.31,N,3021.55,E,,,160114,,,A
$PGRMZ,163,m,3
$GPRMC,114254.00,A,5027.31,N,3021.55,E,,,160114,,,A
$PGRMZ,163,m,3
$GPRMC,114255.00,A,5027.32,N,3021.55,E,,,160114,,,A
$PGRMZ,163,m,3
$GPRMC,114256.00,A,5027.32,N,3021.56,E,,,160114,,,A
$PGRMZ,163,m,3
$GPRMC,114257.00,A,5027.32,N,3021.56,E,,,160114,,,A
$PGRMZ,162,m,3
$GPRMC,114258.00,A,5027.32,N,3021.57,E,,,160114,,,A
$PGRMZ,162,m,3
$GPRMC,114259.00,A,5027.32,N,3021.57,E,,,160114,,,A
$PGRMZ,162,m,3
$GPRMC,114300.00,A,5027.32,N,3021.58,E,,,160114,,,A
$PGRMZ,162,m,3
$GPRMC,114301.00,A,5027.32,N,3021.58,E,,,160114,,,A
$PGRMZ,162,m,3
$GPRMC,114302.00,A,5027.32,N,3021.58,E,,,160114,,,A
$PGRMZ,162,m,3
$GPRMC,114303.00,A,5027.32,N,3021.59,E,,,160114,,,A
$PGRMZ,162,m,3
$GPRMC,114304.00,A,5027.32,N,3021.6,E,,,160114,,,A
$PGRMZ,162,m,3
$GPRMC,114305.00,A,5027.33,N,3021.6,E,,,160114,,,A
$PGRMZ,162,m,3
$GPRMC,114306.00,A,5027.33,N,3021.61,E,,,160114,,,A
$PGRMZ,162,m,3
$GPRMC,114307.00,A,5027.33,N,3021.61,E,,,160114,,,A
$PGRMZ,162,m,3
$GPRMC,114308.00,A,5027.33,N,3021.62,E,,,160114,,,A
$PGRMZ,162,m,3
$GPRMC,114309.00,A,5027.33,N,3021.63,E,,,160114,,,A
$PGRMZ,162,m,3
$GPRMC,114310.00,A,5027.33,N,3021.64,E,,,160114,,,A
$PGRMZ,163,m,3
$GPRMC,114311.00,A,5027.33,N,3021.64,E,,,160114,,,A
$PGRMZ,163,m,3
$GPRMC,114312.00,A,5027.33,N,3021.65,E,,,160114,,,A
$PGRMZ,163,m,3
$GPRMC,114313.00,A,5027.33,N,3021.66,E,,,160114,,,A
$PGRMZ,163,m,3
$GPRMC,114314.00,A,5027.33,N,3021.67,E,,,160114,,,A
$PGRMZ,163,m,3
$GPRMC,114315.00,A,5027.33,N,3021.68,E,,,160114,,,A
$PGRMZ,163,m,3
$GPRMC,114316.00,A,5027.33,N,3021.69,E,,,160114,,,A
$PGRMZ,163,m,3
$GPRMC,114317.00,A,5027.33,N,3021.7,E,,,160114,,,A
$PGRMZ,163,m,3
$GPRMC,114318.00,A,5027.33,N,3021.71,E,,,160114,,,A
$PGRMZ,163,m,3
$GPRMC,114319.00,A,5027.33,N,3021.72,E,,,160114,,,A
$PGRMZ,163,m,3
$GPRMC,114320.00,A,5027.33,N,3021.73,E,,,160114,,,A
$PGRMZ,163,m,3
$GPRMC,114321.00,A,5027.33,N,3021.74,E,,,160114,,,A
$PGRMZ,163,m,3
$GPRMC,114322.00,A,5027.33,N,3021.75,E,,,160114,,,A
$PGRMZ,163,m,3
$GPRMC,114323.00,A,5027.33,N,3021.76,E,,,160114,,,A
$PGRMZ,163,m,3
$GPRMC,114324.00,A,5027.33,N,3021.77,E,,,160114,,,A
$PGRMZ,163,m,3
$GPRMC,114325.00,A,5027.33,N,3021.78,E,,,160114,,,A
$PGRMZ,163,m,3
$GPRMC,114326.00,A,5027.34,N,3021.79,E,,,160114,,,A
$PGRMZ,162,m,3
$GPRMC,114327.00,A,5027.34,N,3021.8,E,,,160114,,,A
$PGRMZ,162,m,3
$GPRMC,114328.00,A,5027.34,N,3021.81,E,,,160114,,,A
$PGRMZ,161,m,3
$GPRMC,114329.00,A,5027.34,N,3021.82,E,,,160114,,,A
$PGRMZ,161,m,3
$GPRMC,114330.00,A,5027.34,N,3021.83,E,,,160114,,,A
$PGRMZ,161,m,3
$GPRMC,114331.00,A,5027.34,N,3021.84,E,,,160114,,,A
$PGRMZ,160,m,3
$GPRMC,114332.00,A,5027.34,N,3021.85,E,,,160114,,,A
$PGRMZ,160,m,3
$GPRMC,114333.00,A,5027.34,N,3021.86,E,,,160114,,,A
$PGRMZ,160,m,3
$GPRMC,114334.00,A,5027.34,N,3021.86,E,,,160114,,,A
$PGRMZ,160,m,3
$GPRMC,114335.00,A,5027.34,N,3021.87,E,,,160114,,,A
$PGRMZ,159,m,3
$GPRMC,114336.00,A,5027.34,N,3021.87,E,,,160114,,,A
$PGRMZ,159,m,3
$GPRMC,114337.00,A,5027.34,N,3021.88,E,,,160114,,,A
$PGRMZ,159,m,3
$GPRMC,114338.00,A,5027.34,N,3021.88,E,,,160114,,,A
$PGRMZ,159,m,3
$GPRMC,114339.00,A,5027.34,N,3021.88,E,,,160114,,,A
$PGRMZ,159,m,3
$GPRMC,114340.00,A,5027.34,N,3021.88,E,,,160114,,,A
$PGRMZ,159,m,3
$GPRMC,114342.00,A,5027.34,N,3021.88,E,,,160114,,,A
$PGRMZ,159,m,3
$GPRMC,114344.00,A,5027.34,N,3021.88,E,,,160114,,,A
$PGRMZ,158,m,3
$GPRMC,114345.00,A,5027.34,N,3021.88,E,,,160114,,,A
$PGRMZ,158,m,3
$GPRMC,114347.00,A,5027.34,N,3021.88,E,,,160114,,,A
$PGRMZ,158,m,3
$GPRMC,114348.00,A,5027.34,N,3021.88,E,,,160114,,,A
$PGRMZ,157,m,3
$GPRMC,114349.00,A,5027.34,N,3021.88,E,,,160114,,,A
$PGRMZ,157,m,3
